station,name,state,lat,lon,date,bewd_i,bewd_i_flag,bewd_ii,bewd_ii_flag,bewd_iii,bewd_iii_flag,bewm_i,bewm_i_flag,bewm_ii,bewm_ii_flag,bewm_iii,bewm_iii_flag,bewm_mittel,bewm_mittel_flag,bft6,bft6_flag,bft8,bft8_flag,cglo_j,cglo_j_flag,dampf_i,dampf_i_flag,dampf_ii,dampf_ii_flag,dampf_iii,dampf_iii_flag,dampf_mittel,dampf_mittel_flag,dd32_i,dd32_i_flag,dd32_ii,dd32_ii_flag,dd32_iii,dd32_iii_flag,erdb_i,erdb_i_flag,erdb_ii,erdb_ii_flag,erdb_iii,erdb_iii_flag,ffx,ffx_flag,gew,gew_flag,glatt,glatt_flag,nebel,nebel_flag,p_i,p_i_flag,p_ii,p_ii_flag,p_iii,p_iii_flag,p_mittel,p_mittel_flag,raureif,raureif_flag,reif,reif_flag,rfb_i,rfb_i_flag,rfb_ii,rfb_ii_flag,rfb_iii,rfb_iii_flag,rfb_mittel,rfb_mittel_flag,rf_i,rf_i_flag,rf_ii,rf_ii_flag,rf_iii,rf_iii_flag,rf_mittel,rf_mittel_flag,rr,rr_flag,rr_i,rr_i_flag,rr_iii,rr_iii_flag,rra_manu,rra_manu_flag,rra_manu_i,rra_manu_i_flag,rra_manu_iii,rra_manu_iii_flag,sh,sh_flag,sh_manu,sh_manu_flag,sha_manu,sha_manu_flag,shneu_manu,shneu_manu_flag,sicht_i,sicht_i_flag,sicht_ii,sicht_ii_flag,sicht_iii,sicht_iii_flag,so_h,so_h_flag,tau,tau_flag,tl_i,tl_i_flag,tl_ii,tl_ii_flag,tl_iii,tl_iii_flag,tlmax,tlmax_flag,tlmin,tlmin_flag,tl_mittel,tl_mittel_flag,tsmin,tsmin_flag,vvbft_i,vvbft_i_flag,vvbft_ii,vvbft_ii_flag,vvbft_iii,vvbft_iii_flag,vv_mittel,vv_mittel_flag,zeitx,zeitx_flag
1,Aflenz,Steiermark,47.54594,15.24069,2025-07-11,2.0,10,1.0,10,1.0,10,10.0,10,6.0,10,6.0,10,73.0,10,0,10,0,10,1665.0,10,11.9,10,12.0,10,11.1,10,11.7,10,8.0,10,20.0,10,28.0,10,1,10,1,10,1,10,9.1,10,0,10,0,10,1,10,928.1,10,927.0,10,927.3,10,927.5,10,0,10,0,10,,10,,10,,10,,10,100.0,10,66.0,10,75.0,10,80.0,10,0.8,10,1.8,10,0.8,10,,10,,10,,10,,10,-1.0,10,0,10,-1.0,10,400.0,10,6000.0,10,6000.0,10,3.8,10,0,10,9.5,10,16.0,10,12.9,10,18.2,10,8.5,10,13.4,10,7.7,10,1,10,2,10,2,10,2.1,10,1153.0,10
2,Aigen im Ennstal,Steiermark,47.53278,14.13826,2025-07-11,2.0,10,2.0,10,2.0,10,9.0,10,8.0,10,4.0,10,70.0,10,0,10,0,10,1335.0,10,13.2,10,12.3,10,13.5,10,13.0,10,20.0,10,20.0,10,24.0,10,1,10,1,10,1,10,9.0,10,0,10,0,10,0,10,943.4,10,942.9,10,941.2,10,942.5,10,0,10,0,10,,10,,10,,10,,10,93.0,10,72.0,10,81.0,10,82.0,10,3.2,10,7.6,10,3.2,10,1,10,1,10,1,10,,10,-1.0,10,0,10,-1.0,10,15000.0,10,30000.0,10,30000.0,10,3.5,10,0,10,12.2,10,15.1,10,14.7,10,18.2,10,10.9,10,14.6,10,9.6,10,1,10,3,10,1,10,2.2,10,1332.0,10
3,Allentsteig,Niederösterreich,48.69083,15.36694,2025-07-11,1.0,10,2.0,10,1.0,10,9.0,10,3.0,10,8.0,10,67.0,10,0,10,0,10,2009.0,10,13.2,10,12.0,10,12.4,10,12.5,10,24.0,10,32.0,10,24.0,10,1,10,1,10,1,10,8.8,10,1,10,0,10,0,10,946.9,10,945.6,10,945.5,10,946.0,10,0,10,0,10,,10,,10,,10,,10,91.0,10,56.0,10,78.0,10,75.0,10,4.8,10,2.7,10,4.8,10,1,10,1,10,1,10,,10,-1.0,10,0,10,-1.0,10,30000.0,10,40000.0,10,35000.0,10,5.7,10,0,10,12.5,10,18.6,10,13.9,10,20.0,10,10.7,10,15.4,10,8.8,10,2,10,1,10,2,10,2.1,10,1528.0,10
4,Amstetten,Niederösterreich,48.10889,14.895,2025-07-11,,10,,10,,10,,10,,10,,10,,10,0,10,0,10,1574.0,10,14.4,10,13.6,10,13.6,10,13.9,10,28.0,10,28.0,10,28.0,10,,10,,10,,10,9.1,10,1,10,,10,,10,986.6,10,985.5,10,985.4,10,985.8,10,,10,,10,,10,,10,,10,,10,95.0,10,62.0,10,68.0,10,75.0,10,0.5,10,0.6,10,0.4,10,,10,,10,,10,,10,,10,,10,,10,,10,,10,,10,3.4,10,,10,13.2,10,19.0,10,17.5,10,21.7,10,11.0,10,16.4,10,9.8,10,1,10,2,10,2,10,2.1,10,1853.0,10
5,Bad Aussee,Steiermark,47.6105,13.75844,2025-07-11,2.0,10,0.0,10,0.0,10,10.0,10,5.0,10,4.0,10,63.0,10,0,10,0,10,,10,12.8,10,13.0,10,13.3,10,13.0,10,4.0,10,28.0,10,20.0,10,2,10,1,10,0,10,4.4,10,0,10,0,10,0,10,932.5,10,932.4,10,931.0,10,932.0,10,0,10,0,10,,10,,10,,10,,10,95.0,10,76.0,10,81.0,10,84.0,10,4.1,10,14.2,10,4.0,10,,10,,10,,10,,10,-1.0,10,0,10,-1.0,10,4000.0,10,8000.0,10,8000.0,10,3.2,10,0,10,11.4,10,15.1,10,14.5,10,17.8,10,10.6,10,14.2,10,,10,1,10,1,10,1,10,1.1,10,1230.0,10
6,Bad Bleiberg,Kärnten,46.62528,13.68444,2025-07-11,,10,,10,,10,,10,,10,,10,,10,0,10,0,10,1184.0,10,9.9,10,12.3,10,13.6,10,11.9,10,28.0,10,8.0,10,20.0,10,,10,,10,,10,8.1,10,1,10,,10,,10,913.7,10,912.7,10,912.4,10,912.9,10,,10,,10,,10,,10,,10,,10,62.0,10,68.0,10,83.0,10,71.0,10,1.5,10,-1.0,10,1.5,10,,10,,10,,10,,10,,10,,10,,10,,10,,10,,10,2.8,10,,10,14.0,10,15.9,10,14.4,10,17.4,10,8.8,10,13.1,10,4.8,10,1,10,1,10,1,10,1.1,10,1351.0,10
7,Bad Gastein,Salzburg,47.11056,13.13336,2025-07-11,,0,,0,,0,,0,,0,,0,,0,0,0,0,0,499.0,0,11.6,0,11.5,0,12.0,0,11.7,0,32.0,0,32.0,0,20.0,0,,0,,0,,0,8.2,0,0,0,,0,,0,895.6,0,895.7,0,894.4,0,895.2,0,,0,,0,,0,,0,,0,,0,95.0,0,94.0,0,92.0,0,94.0,0,8.9,0,1.3,0,7.6,0,,0,,0,,0,,0,,0,,0,,0,,0,,0,,0,0.1,0,,0,10.0,0,10.0,0,10.9,0,12.4,0,9.6,0,11.0,0,,0,1,0,1,0,1,0,1.1,0,1318.0,0
8,Bad Gleichenberg,Steiermark,46.87222,15.90361,2025-07-11,,10,,10,,10,,10,,10,,10,,10,0,10,0,10,1821.0,10,14.8,10,13.8,10,15.2,10,14.6,10,16.0,10,16.0,10,12.0,10,,10,,10,,10,10.0,10,0,10,,10,,10,984.8,10,983.4,10,983.6,10,983.9,10,,10,,10,,10,,10,,10,,10,69.0,10,54.0,10,74.0,10,66.0,10,0.0,10,-1.0,10,0.0,10,,10,,10,,10,,10,,10,,10,,10,,10,,10,,10,5.9,10,,10,18.7,10,21.5,10,18.0,10,24.5,10,13.9,10,19.2,10,,10,1,10,1,10,1,10,1.1,10,1453.0,10
9,Bad Goisern,Oberösterreich,47.62194,13.64472,2025-07-11,,10,,10,,10,,10,,10,,10,,10,0,10,0,10,1160.0,10,13.9,10,13.9,10,15.0,10,14.3,10,12.0,10,16.0,10,4.0,10,,10,,10,,10,7.0,10,0,10,,10,,10,956.0,10,955.6,10,954.2,10,955.3,10,,10,,10,,10,,10,,10,,10,94.0,10,78.0,10,89.0,10,87.0,10,4.9,10,3.9,10,4.9,10,,10,,10,,10,,10,,10,,10,,10,,10,,10,,10,2.2,10,,10,12.8,10,15.7,10,14.9,10,18.9,10,11.9,10,15.4,10,12.4,10,1,10,2,10,1,10,1.6,10,1233.0,10
10,Bad Mitterndorf,Steiermark,47.55333,13.93472,2025-07-11,2.0,10,2.0,10,2.0,10,10.0,10,8.0,10,4.0,10,73.0,10,0,10,0,10,1208.0,10,12.8,10,11.8,10,13.2,10,12.6,10,20.0,10,20.0,10,16.0,10,2,10,2,10,1,10,4.5,10,0,10,0,10,0,10,927.0,10,926.9,10,925.4,10,926.4,10,0,10,0,10,,10,,10,,10,,10,98.0,10,73.0,10,81.0,10,84.0,10,5.3,10,11.0,10,5.3,10,1,10,1,10,1,10,,10,-1.0,10,0,10,-1.0,10,,10,500.0,10,5000.0,10,3.6,10,0,10,10.9,10,14.2,10,14.3,10,17.9,10,9.9,10,13.9,10,,10,1,10,1,10,1,10,1.1,10,1600.0,10
11,Bad Radkersburg,Steiermark,46.69222,15.99333,2025-07-11,,10,,10,,10,,10,,10,,10,,10,0,10,0,10,2048.0,10,13.6,10,11.8,10,15.6,10,13.7,10,24.0,10,16.0,10,4.0,10,,10,,10,,10,8.7,10,0,10,,10,,10,992.1,10,990.1,10,991.1,10,991.1,10,,10,,10,,10,,10,,10,,10,70.0,10,38.0,10,75.0,10,61.0,10,0.2,10,-1.0,10,0.2,10,,10,,10,,10,,10,,10,,10,,10,,10,,10,,10,5.7,10,,10,17.1,10,24.7,10,18.2,10,25.5,10,15.2,10,20.4,10,,10,2,10,1,10,1,10,1.6,10,1404.0,10
13,Bernstein,Burgenland,47.40833,16.26139,2025-07-11,,10,,10,,10,,10,,10,,10,,10,0,10,0,10,1460.0,10,12.2,10,11.2,10,12.7,10,12.0,10,28.0,10,28.0,10,28.0,10,,10,,10,,10,8.5,10,0,10,,10,,10,943.7,10,942.5,10,942.9,10,943.0,10,,10,,10,,10,,10,,10,,10,65.0,10,51.0,10,86.0,10,67.0,10,1.3,10,-1.0,10,1.3,10,,10,,10,,10,,10,,10,,10,,10,,10,,10,,10,4.5,10,,10,16.5,10,19.0,10,12.8,10,19.9,10,12.7,10,16.3,10,,10,1,10,1,10,1,10,1.1,10,1648.0,10
14,Bischofshofen,Salzburg,47.40667,13.22111,2025-07-11,,10,,10,,10,,10,,10,,10,,10,0,10,0,10,972.0,10,13.9,10,13.9,10,12.8,10,13.5,10,0.0,10,12.0,10,12.0,10,,10,,10,,10,6.1,10,1,10,,10,,10,955.3,10,955.1,10,953.4,10,954.6,10,,10,,10,,10,,10,,10,,10,94.0,10,88.0,10,72.0,10,85.0,10,7.0,10,4.7,10,5.5,10,,10,,10,,10,,10,,10,,10,,10,,10,,10,,10,2.0,10,,10,12.8,10,13.9,10,15.7,10,17.5,10,12.2,10,14.9,10,12.0,10,0,10,2,10,2,10,1.8,10,1218.0,10
15,Bregenz,Vorarlberg,47.49917,9.74611,2025-07-11,,10,,10,,10,,10,,10,,10,,10,0,10,0,10,2531.0,10,12.4,10,11.2,10,12.1,10,11.9,10,12.0,10,28.0,10,32.0,10,,10,,10,,10,5.8,10,0,10,,10,,10,967.3,10,965.6,10,964.0,10,965.6,10,,10,,10,,10,,10,,10,,10,74.0,10,38.0,10,42.0,10,51.0,10,-1.0,10,-1.0,10,-1.0,10,,10,,10,,10,,10,,10,,10,,10,,10,,10,,10,9.0,10,,10,14.7,10,23.8,10,23.5,10,25.3,10,12.6,10,19.0,10,8.7,10,2,10,2,10,1,10,2.1,10,324.0,10
16,Brenner,Tirol,47.00722,11.51083,2025-07-11,,10,,10,,10,,10,,10,,10,,10,0,10,0,10,1354.0,10,9.8,10,9.6,10,9.9,10,9.8,10,4.0,10,24.0,10,8.0,10,,10,,10,,10,7.1,10,0,10,,10,,10,862.3,10,860.9,10,861.1,10,861.4,10,,10,,10,,10,,10,,10,,10,82.0,10,51.0,10,71.0,10,68.0,10,0.9,10,-1.0,10,0.4,10,,10,,10,,10,,10,,10,,10,,10,,10,,10,,10,1.8,10,,10,9.6,10,16.5,10,11.9,10,17.9,10,7.4,10,12.7,10,,10,1,10,1,10,1,10,1.1,10,2001.0,10
17,Bruck an der Mur,Steiermark,47.40556,15.24972,2025-07-11,,10,,10,,10,,10,,10,,10,,10,0,10,0,10,1911.0,10,12.4,10,10.7,10,13.6,10,12.2,10,20.0,10,20.0,10,24.0,10,,10,,10,,10,8.4,10,0,10,,10,,10,,10,,10,,10,,10,,10,,10,,10,,10,,10,,10,73.0,10,43.0,10,68.0,10,61.0,10,0.2,10,0.1,10,0.2,10,,10,,10,,10,,10,,10,,10,,10,,10,,10,,10,7.5,10,,10,15.0,10,21.1,10,17.5,10,22.6,10,11.4,10,17.0,10,10.1,10,2,10,2,10,2,10,2.7,10,1154.0,10
18,Bruckneudorf,Burgenland,48.01278,16.845,2025-07-11,,10,,10,,10,,10,,10,,10,,10,0,10,0,10,1991.0,10,15.3,10,12.7,10,13.6,10,13.9,10,28.0,10,32.0,10,24.0,10,,10,,10,,10,8.8,10,0,10,,10,,10,996.3,10,994.8,10,994.7,10,995.3,10,,10,,10,,10,,10,,10,,10,82.0,10,46.0,10,60.0,10,63.0,10,0.2,10,-1.0,10,0.2,10,,10,,10,,10,,10,,10,,10,,10,,10,,10,,10,6.1,10,,10,16.4,10,22.8,10,19.5,10,23.9,10,11.3,10,17.6,10,9.6,10,1,10,2,10,2,10,2.1,10,1217.0,10
19,Dellach,Kärnten,46.74189,13.08286,2025-07-11,2.0,10,1.0,10,1.0,10,8.0,10,,10,,10,,10,0,10,0,10,,10,12.4,10,15.5,10,14.4,10,14.1,10,4.0,10,4.0,10,24.0,10,0,10,,10,,10,7.5,10,0,10,0,10,0,10,945.7,10,944.2,10,943.8,10,944.6,10,0,10,0,10,,10,,10,,10,,10,80.0,10,80.0,10,78.0,10,79.0,10,0.4,10,-1.0,10,0.4,10,,10,,10,,10,,10,-1.0,10,0,10,-1.0,10,9000.0,10,,10,,10,2.7,10,0,10,13.6,10,17.0,10,16.3,10,20.2,10,12.1,10,16.2,10,10.1,10,1,10,1,10,2,10,1.6,10,1436.0,10
20,Ehrwald,Tirol,47.40417,10.92,2025-07-11,,10,,10,,10,,10,,10,,10,,10,0,10,0,10,1466.0,10,11.1,10,11.4,10,12.5,10,11.7,10,0.0,10,24.0,10,32.0,10,,10,,10,,10,10.0,10,1,10,,10,,10,907.7,10,905.9,10,905.6,10,906.4,10,,10,,10,,10,,10,,10,,10,89.0,10,47.0,10,70.0,10,69.0,10,0.5,10,-1.0,10,0.1,10,,10,,10,,10,,10,,10,,10,,10,,10,,10,,10,3.2,10,,10,10.3,10,20.6,10,15.7,10,21.7,10,7.5,10,14.6,10,6.1,10,0,10,2,10,2,10,1.8,10,1548.0,10
21,Bad Eisenkappel,Kärnten,46.49056,14.59333,2025-07-11,1.0,10,2.0,10,1.0,10,4.0,10,10.0,10,2.0,10,53.0,10,0,10,0,10,1281.0,10,12.9,10,12.2,10,13.5,10,12.9,10,0.0,10,16.0,10,24.0,10,1,10,1,10,1,10,9.2,10,0,10,0,10,0,10,946.4,10,944.9,10,944.7,10,945.3,10,0,10,0,10,,10,,10,,10,,10,92.0,10,58.0,10,84.0,10,78.0,10,0.3,10,0.9,10,0.3,10,,10,,10,,10,,10,-1.0,10,0,10,-1.0,10,30000.0,10,10000.0,10,30000.0,10,2.0,10,0,10,12.0,10,18.3,10,14.1,10,20.2,10,10.8,10,15.5,10,10.1,10,0,10,1,10,1,10,0.7,10,1229.0,10
22,Eisenstadt Nordost,Burgenland,47.85417,16.53833,2025-07-11,,10,,10,,10,,10,,10,,10,,10,0,10,0,10,2269.0,10,13.5,10,11.1,10,12.6,10,12.4,10,28.0,10,28.0,10,24.0,10,,10,,10,,10,12.8,10,0,10,,10,,10,994.2,10,992.7,10,993.1,10,993.3,10,,10,,10,,10,,10,,10,,10,66.0,10,40.0,10,56.0,10,54.0,10,-1.0,10,-1.0,10,-1.0,10,0,10,0,10,0,10,,10,,10,,10,,10,,10,,10,,10,8.6,10,,10,17.9,10,22.9,10,19.4,10,23.9,10,13.6,10,18.8,10,12.1,10,3,10,2,10,2,10,3.3,10,1632.0,10
23,Enns,Oberösterreich,48.19583,14.45028,2025-07-11,,10,,10,,10,,10,,10,,10,,10,0,10,0,10,1503.0,10,14.9,10,13.7,10,12.4,10,13.7,10,4.0,10,24.0,10,32.0,10,,10,,10,,10,12.0,10,1,10,,10,,10,980.4,10,979.5,10,979.0,10,979.6,10,,10,,10,,10,,10,,10,,10,100.0,10,77.0,10,68.0,10,82.0,10,0.0,10,4.7,10,0.0,10,,10,,10,,10,,10,,10,,10,,10,,10,,10,,10,3.3,10,,10,12.9,10,15.7,10,16.1,10,20.5,10,11.7,10,16.1,10,9.9,10,1,10,3,10,3,10,3.4,10,1300.0,10
24,Feldkirch,Vorarlberg,47.27111,9.60972,2025-07-11,0.0,10,1.0,10,2.0,10,2.0,10,3.0,10,7.0,10,40.0,10,0,10,0,10,2343.0,10,11.7,10,14.1,10,14.0,10,13.3,10,20.0,10,4.0,10,24.0,10,0,10,0,10,0,10,7.6,10,0,10,0,10,0,10,967.6,10,965.5,10,964.2,10,965.8,10,0,10,0,10,,10,,10,,10,,10,66.0,10,45.0,10,53.0,10,55.0,10,-1.0,10,-1.0,10,-1.0,10,,10,,10,,10,,10,-1.0,10,0,10,-1.0,10,30000.0,10,30000.0,10,25000.0,10,10.1,10,0,10,15.6,10,24.8,10,22.0,10,26.6,10,12.3,10,19.5,10,10.6,10,1,10,1,10,1,10,1.1,10,1932.0,10
25,Fischbach,Steiermark,47.44417,15.64389,2025-07-11,2.0,10,2.0,10,1.0,10,2.0,10,6.0,10,2.0,10,33.0,10,0,10,0,10,1708.0,10,10.3,10,10.7,10,9.8,10,10.3,10,24.0,10,24.0,10,28.0,10,0,10,0,10,1,10,12.7,10,0,10,0,10,0,10,899.6,10,898.9,10,898.9,10,899.1,10,0,10,0,10,,10,,10,,10,,10,71.0,10,61.0,10,67.0,10,66.0,10,1.8,10,-1.0,10,1.8,10,,10,,10,,10,,10,-1.0,10,0,10,-1.0,10,30000.0,10,25000.0,10,25000.0,10,5.9,10,0,10,12.5,10,15.5,10,12.7,10,17.3,10,9.0,10,13.2,10,7.9,10,1,10,1,10,2,10,1.6,10,1608.0,10
26,Freistadt,Oberösterreich,48.49472,14.50639,2025-07-11,,10,,10,,10,,10,,10,,10,,10,0,10,0,10,1578.0,10,13.2,10,14.2,10,13.8,10,13.7,10,0.0,10,4.0,10,0.0,10,,10,,10,,10,9.4,10,0,10,,10,,10,954.6,10,953.8,10,953.4,10,953.9,10,,10,,10,,10,,10,,10,,10,94.0,10,81.0,10,94.0,10,90.0,10,8.4,10,1.4,10,8.4,10,,10,,10,,10,,10,,10,,10,,10,,10,,10,,10,3.3,10,,10,12.1,10,15.5,10,12.7,10,18.9,10,8.6,10,13.8,10,8.6,10,0,10,1,10,0,10,0.4,10,1722.0,10
27,Gallspach,Oberösterreich,48.20422,13.825,2025-07-11,,10,,10,,10,,10,,10,,10,,10,0,10,0,10,,10,15.3,10,15.8,10,14.1,10,15.1,10,12.0,10,24.0,10,4.0,10,,10,,10,,10,13.5,10,0,10,,10,,10,,10,,10,,10,,10,,10,,10,,10,,10,,10,,10,100.0,10,74.0,10,73.0,10,82.0,10,2.1,10,-1.0,10,2.1,10,,10,,10,,10,,10,,10,,10,,10,,10,,10,,10,5.0,10,,10,13.4,10,18.6,10,17.0,10,21.9,10,12.3,10,17.1,10,9.6,10,1,10,2,10,1,10,1.6,10,1208.0,10
28,Galtür,Tirol,46.96806,10.18556,2025-07-11,,10,,10,,10,,10,,10,,10,,10,0,10,0,10,1594.0,10,8.8,10,8.8,10,8.4,10,8.7,10,0.0,10,24.0,10,24.0,10,,10,,10,,10,8.6,10,0,10,,10,,10,845.5,10,844.8,10,844.3,10,844.9,10,,10,,10,,10,,10,,10,,10,78.0,10,55.0,10,54.0,10,62.0,10,1.2,10,-1.0,10,-1.0,10,,10,,10,,10,,10,,10,,10,,10,,10,,10,,10,4.6,10,,10,8.7,10,14.1,10,13.6,10,16.7,10,4.2,10,10.5,10,2.5,10,0,10,2,10,2,10,1.8,10,1707.0,10
30,Graz Universität/Heinrichstraße,Steiermark,47.08,15.448056,2025-07-11,,10,,10,,10,,10,,10,,10,,10,,10,,10,,10,13.1,10,13.5,10,13.9,10,13.5,10,,10,,10,,10,,10,,10,,10,,10,0,10,,10,,10,973.6,10,972.5,10,972.6,10,972.9,10,,10,,10,,10,,10,,10,,10,72.0,10,59.0,10,67.0,10,66.0,10,0.3,10,1.5,10,0.3,10,,10,,10,,10,,10,,10,,10,,10,,10,,10,,10,,10,,10,16.0,10,19.7,10,18.1,10,23.6,10,13.2,10,18.4,10,12.4,10,,10,,10,,10,,10,,10
31,Groß-Enzersdorf,Niederösterreich,48.19975,16.55917,2025-07-11,,10,,10,,10,,10,,10,,10,,10,0,10,0,10,1892.0,10,13.0,10,11.6,10,12.8,10,12.5,10,28.0,10,28.0,10,24.0,10,,10,,10,,10,10.6,10,0,10,,10,,10,998.4,10,996.9,10,996.6,10,997.3,10,,10,,10,,10,,10,,10,,10,67.0,10,51.0,10,55.0,10,58.0,10,2.6,10,-1.0,10,2.6,10,,10,,10,,10,,10,,10,,10,,10,,10,,10,,10,5.8,10,,10,17.0,10,19.6,10,20.0,10,23.0,10,12.3,10,17.7,10,10.0,10,3,10,2,10,2,10,3.3,10,1312.0,10
32,Gumpoldskirchen,Niederösterreich,48.03583,16.28083,2025-07-11,,10,,10,,10,,10,,10,,10,,10,0,10,0,10,2000.0,10,12.8,10,10.8,10,12.0,10,11.9,10,24.0,10,28.0,10,24.0,10,,10,,10,,10,13.4,10,0,10,,10,,10,991.3,10,990.3,10,989.6,10,990.4,10,,10,,10,,10,,10,,10,,10,66.0,10,44.0,10,56.0,10,55.0,10,-1.0,10,-1.0,10,-1.0,10,,10,,10,,10,,10,,10,,10,,10,,10,,10,,10,6.2,10,,10,17.1,10,20.8,10,18.7,10,23.0,10,15.7,10,19.4,10,14.1,10,4,10,3,10,4,10,6.0,10,343.0,10
36,Hohe Wand/Hochkogelhaus,Niederösterreich,47.82222,16.035,2025-07-11,,10,,10,,10,,10,,10,,10,,10,0,10,0,10,1759.0,10,11.3,10,11.5,10,10.5,10,11.1,10,28.0,10,24.0,10,28.0,10,,10,,10,,10,12.8,10,0,10,,10,,10,909.7,10,909.5,10,908.8,10,909.3,10,,10,,10,,10,,10,,10,,10,86.0,10,62.0,10,72.0,10,73.0,10,0.2,10,3.3,10,0.2,10,,10,,10,,10,,10,,10,,10,,10,,10,,10,,10,3.8,10,,10,11.1,10,16.3,10,12.6,10,18.1,10,9.8,10,14.0,10,,10,3,10,2,10,4,10,4.7,10,1936.0,10
37,Schöngrabern,Niederösterreich,48.60333,16.06167,2025-07-11,2.0,10,1.0,10,1.0,10,10.0,10,6.0,10,7.0,10,77.0,10,0,10,0,10,1848.0,10,14.7,10,14.3,10,14.6,10,14.5,10,28.0,10,28.0,10,24.0,10,1,10,1,10,1,10,9.9,10,0,10,0,10,0,10,987.0,10,985.3,10,984.9,10,985.7,10,0,10,0,10,,10,,10,,10,,10,89.0,10,54.0,10,65.0,10,69.0,10,0.2,10,0.2,10,0.2,10,1,10,1,10,1,10,,10,-1.0,10,0,10,-1.0,10,8000.0,10,30000.0,10,25000.0,10,5.7,10,0,10,14.5,10,22.1,10,19.4,10,23.9,10,13.5,10,18.7,10,12.9,10,2,10,1,10,2,10,2.1,10,1445.0,10
38,Imst,Tirol,47.23694,10.74222,2025-07-11,0.0,10,0.0,10,0.0,10,5.0,10,7.0,10,5.0,10,57.0,10,0,10,0,10,1845.0,10,11.3,10,10.2,10,12.4,10,11.3,10,4.0,10,16.0,10,20.0,10,1,10,0,10,0,10,6.6,10,0,10,0,10,0,10,930.7,10,928.0,10,928.1,10,928.9,10,0,10,0,10,,10,,10,,10,,10,79.0,10,37.0,10,63.0,10,60.0,10,0.1,10,-1.0,10,-1.0,10,,10,0,10,,10,,10,-1.0,10,0,10,-1.0,10,20000.0,10,20000.0,10,20000.0,10,4.2,10,0,10,12.3,10,22.8,10,17.3,10,24.5,10,10.4,10,17.5,10,,10,1,10,1,10,1,10,1.1,10,1625.0,10
39,Innsbruck Universität,Tirol,47.25986,11.38425,2025-07-11,1.0,10,1.0,10,2.0,10,10.0,10,8.0,10,10.0,10,93.0,10,0,10,0,10,1464.0,10,11.5,10,12.8,10,13.1,10,12.5,10,20.0,10,8.0,10,4.0,10,0,10,0,10,2,10,12.1,10,0,10,0,10,0,10,948.4,10,945.6,10,946.5,10,946.8,10,0,10,0,10,,10,,10,,10,,10,70.0,10,49.0,10,64.0,10,61.0,10,1.7,10,-1.0,10,0.4,10,1,10,0,10,1,10,,10,-1.0,10,0,10,-1.0,10,6000.0,10,8000.0,10,100.0,10,2.8,10,0,10,14.5,10,21.9,10,17.9,10,22.8,10,12.3,10,17.6,10,9.8,10,1,10,2,10,2,10,2.1,10,1501.0,10
40,Irdning-Gumpenstein,Steiermark,47.495,14.09967,2025-07-11,2.0,10,2.0,10,1.0,10,10.0,10,9.0,10,6.0,10,83.0,10,0,10,0,10,1040.0,10,12.7,10,11.8,10,12.9,10,12.5,10,12.0,10,16.0,10,12.0,10,2,10,1,10,1,10,6.9,10,0,10,0,10,0,10,938.6,10,938.1,10,936.6,10,937.8,10,0,10,0,10,,10,,10,,10,,10,92.0,10,71.0,10,82.0,10,82.0,10,5.0,10,6.5,10,5.0,10,,10,1,10,,10,,10,-1.0,10,0,10,-1.0,10,5000.0,10,25000.0,10,5000.0,10,1.3,10,0,10,11.8,10,14.6,10,13.8,10,17.8,10,10.4,10,14.1,10,9.6,10,1,10,1,10,3,10,2.2,10,1912.0,10
42,Jenbach,Tirol,47.38878,11.75814,2025-07-11,,10,,10,,10,,10,,10,,10,,10,0,10,0,10,1221.0,10,12.8,10,15.1,10,13.9,10,13.9,10,20.0,10,4.0,10,32.0,10,,10,,10,,10,11.4,10,0,10,,10,,10,956.5,10,954.8,10,954.9,10,955.4,10,,10,,10,,10,,10,,10,,10,80.0,10,80.0,10,72.0,10,77.0,10,4.6,10,-1.0,10,1.5,10,,10,,10,,10,,10,,10,,10,,10,,10,,10,,10,2.1,10,,10,14.0,10,16.6,10,17.0,10,20.1,10,11.8,10,16.0,10,,10,2,10,3,10,1,10,2.8,10,1342.0,10
43,Kals,Tirol,47.00478,12.6465,2025-07-11,,10,,10,,10,,10,,10,,10,,10,0,10,0,10,1089.0,10,10.4,10,9.0,10,11.0,10,10.1,10,4.0,10,32.0,10,32.0,10,,10,,10,,10,11.1,10,0,10,,10,,10,867.8,10,866.6,10,866.7,10,867.0,10,,10,,10,,10,,10,,10,,10,85.0,10,56.0,10,82.0,10,74.0,10,3.1,10,1.9,10,1.9,10,,10,,10,,10,,10,,10,,10,,10,,10,,10,,10,1.7,10,,10,10.0,10,14.1,10,11.3,10,15.9,10,8.7,10,12.3,10,8.0,10,1,10,1,10,1,10,1.1,10,1532.0,10
44,Kalwang,Steiermark,47.42126,14.75961,2025-07-11,,10,,10,,10,,10,,10,,10,,10,0,10,0,10,1427.0,10,12.1,10,11.4,10,12.3,10,11.9,10,24.0,10,28.0,10,28.0,10,,10,,10,,10,10.9,10,0,10,,10,,10,932.1,10,931.0,10,930.9,10,931.3,10,,10,,10,,10,,10,,10,,10,81.0,10,61.0,10,74.0,10,72.0,10,0.4,10,3.6,10,0.2,10,,10,,10,,10,,10,,10,,10,,10,,10,,10,,10,3.2,10,,10,13.0,10,16.5,10,14.6,10,17.4,10,9.4,10,13.4,10,9.0,10,1,10,2,10,1,10,1.6,10,1458.0,10
46,Krems,Niederösterreich,48.41861,15.62222,2025-07-11,2.0,10,2.0,10,1.0,10,10.0,10,10.0,10,10.0,10,100.0,10,0,10,0,10,1715.0,10,14.1,10,13.7,10,12.2,10,13.3,10,16.0,10,16.0,10,24.0,10,1,10,1,10,1,10,9.6,10,0,10,0,10,0,10,993.2,10,991.9,10,991.4,10,992.2,10,0,10,0,10,,10,,10,,10,,10,83.0,10,61.0,10,61.0,10,68.0,10,-1.0,10,0.8,10,-1.0,10,0,10,1,10,0,10,,10,-1.0,10,0,10,-1.0,10,20000.0,10,20000.0,10,20000.0,10,5.2,10,0,10,15.0,10,19.4,10,17.5,10,23.0,10,13.3,10,18.2,10,12.5,10,1,10,2,10,2,10,2.1,10,1757.0,10
47,Krimml,Salzburg,47.22911,12.18197,2025-07-11,2.0,10,2.0,10,1.0,10,10.0,10,9.0,10,8.0,10,90.0,10,0,10,0,10,1101.0,10,12.2,10,11.7,10,13.3,10,12.4,10,32.0,10,8.0,10,28.0,10,1,10,1,10,1,10,5.2,10,1,10,0,10,0,10,904.4,10,903.3,10,903.0,10,903.6,10,0,10,0,10,,10,,10,,10,,10,92.0,10,67.0,10,85.0,10,81.0,10,6.3,10,1.5,10,0.9,10,1,10,1,10,1,10,,10,-1.0,10,0,10,-1.0,10,8000.0,10,12000.0,10,8000.0,10,1.1,10,0,10,11.2,10,15.4,10,13.7,10,15.7,10,10.2,10,13.0,10,9.9,10,1,10,1,10,1,10,1.1,10,2004.0,10
48,Klagenfurt Flughafen,Kärnten,46.64833,14.31833,2025-07-11,1.0,10,2.0,10,2.0,10,7.0,10,9.0,10,2.0,10,60.0,10,0,10,0,10,1419.0,10,12.0,10,11.9,10,12.9,10,12.3,10,28.0,10,32.0,10,28.0,10,0,10,0,10,1,10,11.1,10,0,10,0,10,0,10,965.4,10,964.4,10,963.7,10,964.5,10,0,10,0,10,,10,,10,,10,,10,69.0,10,63.0,10,65.0,10,66.0,10,0.4,10,0.0,10,0.4,10,,10,,10,,10,,10,-1.0,10,0,10,-1.0,10,55000.0,10,40000.0,10,60000.0,10,3.5,10,0,10,15.4,10,16.6,10,17.4,10,20.7,10,13.3,10,17.0,10,12.3,10,1,10,3,10,1,10,2.2,10,1451.0,10
49,Kleinzicken,Burgenland,47.2075,16.326667,2025-07-11,,10,,10,,10,,10,,10,,10,,10,0,10,0,10,,10,12.9,10,13.2,10,15.4,10,13.8,10,32.0,10,8.0,10,24.0,10,,10,,10,,10,8.7,10,1,10,,10,,10,,10,,10,,10,,10,,10,,10,,10,,10,,10,,10,63.0,10,52.0,10,88.0,10,68.0,10,3.3,10,-1.0,10,3.3,10,,10,,10,,10,,10,,10,,10,,10,,10,,10,,10,4.8,10,,10,17.9,10,21.4,10,15.4,10,23.1,10,12.2,10,17.7,10,10.0,10,1,10,1,10,1,10,1.1,10,1503.0,10
50,Landeck,Tirol,47.14025,10.56364,2025-07-11,,10,,10,,10,,10,,10,,10,,10,0,10,0,10,1491.0,10,10.5,10,11.8,10,11.8,10,11.4,10,16.0,10,32.0,10,32.0,10,,10,,10,,10,8.6,10,0,10,,10,,10,926.8,10,924.3,10,924.0,10,925.0,10,,10,,10,,10,,10,,10,,10,67.0,10,51.0,10,59.0,10,59.0,10,-1.0,10,-1.0,10,-1.0,10,,10,,10,,10,,10,,10,,10,,10,,10,,10,,10,3.2,10,,10,13.7,10,19.9,10,17.6,10,23.0,10,10.4,10,16.7,10,10.1,10,2,10,1,10,1,10,1.6,10,1727.0,10
51,Langenlebarn,Niederösterreich,48.32389,16.11806,2025-07-11,2.0,10,2.0,10,1.0,10,10.0,10,8.0,10,5.0,10,77.0,10,0,10,0,10,1674.0,10,15.1,10,14.0,10,14.5,10,14.5,10,20.0,10,20.0,10,20.0,10,1,10,2,10,1,10,14.6,10,1,10,0,10,0,10,996.0,10,994.9,10,994.2,10,995.0,10,0,10,0,10,,10,,10,,10,,10,90.0,10,80.0,10,69.0,10,80.0,10,20.0,10,0.3,10,20.0,10,1,10,1,10,1,10,,10,-1.0,10,0,10,-1.0,10,35000.0,10,35000.0,10,60000.0,10,6.9,10,0,10,14.8,10,15.4,10,18.3,10,22.5,10,14.2,10,18.4,10,13.5,10,3,10,3,10,4,10,5.3,10,1626.0,10
52,Langenlois,Niederösterreich,48.4725,15.69722,2025-07-11,,10,,10,,10,,10,,10,,10,,10,0,10,0,10,1730.0,10,14.4,10,15.1,10,12.1,10,13.9,10,28.0,10,20.0,10,24.0,10,,10,,10,,10,12.4,10,1,10,,10,,10,992.4,10,991.0,10,990.4,10,991.3,10,,10,,10,,10,,10,,10,,10,81.0,10,64.0,10,58.0,10,68.0,10,4.3,10,0.2,10,4.3,10,,10,,10,,10,,10,,10,,10,,10,,10,,10,,10,4.4,10,,10,15.7,10,20.2,10,18.2,10,22.5,10,13.3,10,17.9,10,,10,1,10,1,10,2,10,1.6,10,1215.0,10
53,Laßnitzhöhe,Steiermark,47.07361,15.59222,2025-07-11,,10,,10,,10,,10,,10,,10,,10,0,10,0,10,1895.0,10,13.0,10,12.0,10,14.7,10,13.2,10,24.0,10,20.0,10,4.0,10,,10,,10,,10,11.1,10,0,10,,10,,10,955.3,10,954.5,10,954.4,10,954.7,10,,10,,10,,10,,10,,10,,10,60.0,10,57.0,10,86.0,10,68.0,10,0.1,10,1.0,10,0.1,10,,10,,10,,10,,10,,10,,10,,10,,10,,10,,10,5.8,10,,10,18.8,10,18.3,10,15.1,10,22.7,10,12.5,10,17.6,10,12.4,10,2,10,2,10,1,10,2.1,10,1313.0,10
54,Leibnitz-Wagna,Steiermark,46.76739,15.55289,2025-07-11,2.0,10,2.0,10,2.0,10,5.0,10,5.0,10,9.0,10,63.0,10,0,10,0,10,1977.0,10,13.6,10,12.6,10,12.5,10,12.9,10,24.0,10,24.0,10,8.0,10,1,10,1,10,0,10,9.4,10,0,10,0,10,0,10,985.3,10,983.5,10,984.3,10,984.4,10,0,10,0,10,,10,,10,,10,,10,68.0,10,46.0,10,55.0,10,56.0,10,-1.0,10,1.0,10,-1.0,10,,10,,10,,10,,10,-1.0,10,0,10,-1.0,10,10000.0,10,10000.0,10,10000.0,10,5.6,10,0,10,17.5,10,22.6,10,19.6,10,24.1,10,13.5,10,18.8,10,12.7,10,1,10,3,10,2,10,2.8,10,1310.0,10
55,Lienz,Tirol,46.82555,12.80639,2025-07-11,0.0,10,0.0,10,0.0,10,8.0,10,9.0,10,5.0,10,73.0,10,0,10,0,10,1481.0,10,12.6,10,11.4,10,12.3,10,12.1,10,24.0,10,8.0,10,28.0,10,1,10,1,10,1,10,13.2,10,0,10,0,10,0,10,941.3,10,939.2,10,939.3,10,939.9,10,0,10,0,10,,10,,10,,10,,10,76.0,10,48.0,10,58.0,10,61.0,10,0.1,10,0.0,10,0.1,10,,10,,10,,10,,10,-1.0,10,0,10,-1.0,10,25000.0,10,25000.0,10,30000.0,10,3.6,10,0,10,14.6,10,20.3,10,18.5,10,20.5,10,13.0,10,16.8,10,11.6,10,1,10,2,10,1,10,1.6,10,1411.0,10
56,Linz Stadt,Oberösterreich,48.29639,14.28528,2025-07-11,,10,,10,,10,,10,,10,,10,,10,0,10,0,10,1448.0,10,14.5,10,15.0,10,12.8,10,14.1,10,28.0,10,20.0,10,4.0,10,,10,,10,,10,7.7,10,1,10,,10,,10,986.6,10,985.5,10,985.1,10,985.7,10,,10,,10,,10,,10,,10,,10,93.0,10,74.0,10,68.0,10,78.0,10,2.2,10,4.2,10,2.1,10,,10,,10,,10,,10,,10,,10,,10,,10,,10,,10,3.0,10,,10,13.6,10,17.8,10,16.6,10,21.6,10,12.2,10,16.9,10,11.7,10,1,10,1,10,2,10,1.6,10,1800.0,10
57,Litschau,Niederösterreich,48.95464,15.03831,2025-07-11,1.0,10,0.0,10,1.0,10,8.0,10,8.0,10,6.0,10,73.0,10,0,10,0,10,1996.0,10,13.5,10,12.1,10,13.0,10,12.9,10,24.0,10,28.0,10,28.0,10,2,10,2,10,1,10,6.4,10,0,10,0,10,0,10,952.7,10,951.3,10,951.6,10,951.9,10,0,10,0,10,,10,,10,,10,,10,93.0,10,56.0,10,81.0,10,77.0,10,4.0,10,13.0,10,4.0,10,1,10,1,10,1,10,,10,-1.0,10,0,10,-1.0,10,5000.0,10,10000.0,10,10000.0,10,6.0,10,0,10,12.6,10,18.8,10,14.1,10,20.6,10,10.3,10,15.5,10,9.8,10,1,10,2,10,1,10,1.6,10,1424.0,10
58,Lutzmannsburg,Burgenland,47.46528,16.64556,2025-07-11,0.0,10,0.0,10,0.0,10,1.0,10,7.0,10,8.0,10,53.0,10,0,10,0,10,1799.0,10,12.9,10,13.0,10,15.5,10,13.8,10,24.0,10,32.0,10,24.0,10,1,10,1,10,2,10,9.0,10,0,10,0,10,0,10,992.5,10,991.0,10,991.4,10,991.6,10,0,10,0,10,,10,,10,,10,,10,64.0,10,47.0,10,82.0,10,64.0,10,3.7,10,-1.0,10,3.7,10,1,10,0,10,1,10,,10,-1.0,10,0,10,-1.0,10,9000.0,10,14000.0,10,10000.0,10,5.0,10,0,10,17.7,10,22.8,10,16.6,10,24.0,10,12.2,10,18.1,10,10.5,10,1,10,1,10,1,10,1.1,10,1719.0,10
59,Mariazell/St.Sebastian Flugfeld,Steiermark,47.78917,15.30222,2025-07-11,2.0,10,2.0,10,2.0,10,10.0,10,10.0,10,7.0,10,90.0,10,0,10,0,10,1399.0,10,11.6,10,12.2,10,12.9,10,12.2,10,12.0,10,32.0,10,12.0,10,0,10,1,10,1,10,11.2,10,1,10,0,10,1,10,918.8,10,917.4,10,918.0,10,918.1,10,0,10,0,10,,10,,10,,10,,10,100.0,10,64.0,10,84.0,10,83.0,10,8.0,10,2.2,10,7.8,10,1,10,0,10,1,10,,10,-1.0,10,0,10,-1.0,10,800.0,10,12000.0,10,19000.0,10,4.0,10,0,10,9.2,10,16.8,10,13.4,10,17.2,10,8.2,10,12.7,10,7.4,10,2,10,1,10,1,10,1.6,10,1440.0,10
60,Mattsee,Salzburg,47.97722,13.10556,2025-07-11,,10,,10,,10,,10,,10,,10,,10,0,10,0,10,1377.0,10,13.0,10,13.7,10,14.6,10,13.8,10,20.0,10,20.0,10,12.0,10,,10,,10,,10,6.4,10,0,10,,10,,10,958.8,10,958.2,10,957.1,10,958.0,10,,10,,10,,10,,10,,10,,10,77.0,10,64.0,10,69.0,10,70.0,10,0.8,10,0.7,10,0.4,10,,10,,10,,10,,10,,10,,10,,10,,10,,10,,10,3.7,10,,10,14.9,10,18.6,10,18.4,10,20.9,10,13.4,10,17.2,10,,10,2,10,1,10,1,10,1.6,10,455.0,10
61,Mayrhofen,Tirol,47.1625,11.85139,2025-07-11,,10,,10,,10,,10,,10,,10,,10,0,10,0,10,1190.0,10,12.0,10,13.0,10,14.1,10,13.0,10,0.0,10,8.0,10,24.0,10,,10,,10,,10,10.3,10,0,10,,10,,10,945.1,10,942.2,10,943.2,10,943.5,10,,10,,10,,10,,10,,10,,10,77.0,10,52.0,10,81.0,10,70.0,10,3.2,10,-1.0,10,1.0,10,,10,,10,,10,,10,,10,,10,,10,,10,,10,,10,1.3,10,,10,13.6,10,21.1,10,15.4,10,21.8,10,11.2,10,16.5,10,9.6,10,0,10,1,10,2,10,1.2,10,1428.0,10
62,Millstatt,Kärnten,46.80806,13.57278,2025-07-11,1.0,10,2.0,10,1.0,10,3.0,10,10.0,10,2.0,10,50.0,10,0,10,0,10,1114.0,10,12.0,10,11.9,10,12.1,10,12.0,10,8.0,10,16.0,10,16.0,10,1,10,0,10,0,10,6.5,10,0,10,0,10,0,10,,10,,10,,10,,10,0,10,0,10,,10,,10,,10,,10,77.0,10,62.0,10,70.0,10,70.0,10,1.2,10,-1.0,10,1.2,10,,10,,10,,10,,10,-1.0,10,0,10,-1.0,10,60000.0,10,60000.0,10,60000.0,10,2.6,10,1,10,13.6,10,16.9,10,15.3,10,18.3,10,11.2,10,14.8,10,9.7,10,1,10,1,10,1,10,1.1,10,1439.0,10
63,Mönichkirchen,Niederösterreich,47.51111,16.03333,2025-07-11,1.0,10,1.0,10,1.0,10,4.0,10,7.0,10,3.0,10,47.0,10,0,10,0,10,1161.0,10,9.9,10,11.0,10,10.4,10,10.4,10,32.0,10,8.0,10,28.0,10,1,10,1,10,1,10,8.6,10,1,10,0,10,0,10,904.4,10,903.8,10,903.7,10,904.0,10,0,10,0,10,,10,,10,,10,,10,64.0,10,67.0,10,71.0,10,67.0,10,9.5,10,0.2,10,9.5,10,1,10,1,10,1,10,,10,-1.0,10,0,10,-1.0,10,20000.0,10,10000.0,10,30000.0,10,2.2,10,0,10,13.5,10,14.4,10,12.7,10,16.8,10,9.5,10,13.2,10,8.9,10,1,10,1,10,2,10,1.6,10,40.0,10
64,Neumarkt,Steiermark,47.06972,14.42472,2025-07-11,,10,,10,,10,,10,,10,,10,,10,0,10,0,10,1518.0,10,11.9,10,12.6,10,13.0,10,12.5,10,0.0,10,24.0,10,12.0,10,,10,,10,,10,8.6,10,0,10,,10,,10,918.9,10,918.9,10,917.4,10,918.4,10,,10,,10,,10,,10,,10,,10,86.0,10,84.0,10,85.0,10,85.0,10,4.2,10,1.0,10,4.2,10,,10,,10,,10,,10,,10,,10,,10,,10,,10,,10,5.2,10,,10,11.8,10,13.0,10,13.4,10,17.0,10,8.4,10,12.7,10,,10,0,10,1,10,1,10,0.7,10,1137.0,10
65,Neusiedl am See,Burgenland,47.94917,16.82889,2025-07-11,1.0,10,1.0,10,1.0,10,7.0,10,5.0,10,4.0,10,53.0,10,0,10,0,10,2044.0,10,14.7,10,13.9,10,14.4,10,14.3,10,28.0,10,28.0,10,24.0,10,1,10,0,10,0,10,10.3,10,0,10,0,10,0,10,1002.0,10,1000.4,10,1000.5,10,1001.0,10,0,10,0,10,,10,,10,,10,,10,75.0,10,48.0,10,63.0,10,62.0,10,-1.0,10,-1.0,10,-1.0,10,0,10,0,10,0,10,,10,-1.0,10,0,10,-1.0,10,4000.0,10,12000.0,10,4000.0,10,7.8,10,0,10,17.2,10,23.5,10,19.7,10,24.6,10,12.4,10,18.5,10,,10,2,10,2,10,2,10,2.7,10,1417.0,10
66,Obergurgl,Tirol,46.86694,11.02444,2025-07-11,1.0,10,2.0,10,2.0,10,6.0,10,9.0,10,9.0,10,80.0,10,0,10,0,10,1449.0,10,7.5,10,7.5,10,7.6,10,7.5,10,12.0,10,4.0,10,4.0,10,1,10,0,10,0,10,9.2,10,0,10,0,10,0,10,809.0,10,808.0,10,807.6,10,808.2,10,0,10,0,10,,10,,10,,10,,10,74.0,10,54.0,10,60.0,10,63.0,10,0.1,10,-1.0,10,0.1,10,,10,,10,,10,,10,-1.0,10,0,10,-1.0,10,40000.0,10,40000.0,10,40000.0,10,2.8,10,1,10,7.2,10,11.9,10,10.5,10,13.7,10,5.4,10,9.6,10,,10,1,10,2,10,3,10,2.8,10,1126.0,10
67,Leiser Berge,Niederösterreich,48.55889,16.37167,2025-07-11,,10,,10,,10,,10,,10,,10,,10,0,10,0,10,2110.0,10,13.5,10,12.8,10,14.3,10,13.5,10,28.0,10,24.0,10,24.0,10,,10,,10,,10,14.0,10,0,10,,10,,10,962.9,10,961.9,10,961.4,10,962.1,10,,10,,10,,10,,10,,10,,10,89.0,10,57.0,10,76.0,10,74.0,10,0.0,10,-1.0,10,0.0,10,,10,,10,,10,,10,,10,,10,,10,,10,,10,,10,6.6,10,,10,13.2,10,19.4,10,16.6,10,21.4,10,12.3,10,16.9,10,12.1,10,4,10,4,10,4,10,6.8,10,1605.0,10
68,Obertauern,Salzburg,47.24889,13.55972,2025-07-11,,10,,10,,10,,10,,10,,10,,10,0,10,0,10,899.0,10,8.9,10,8.2,10,9.7,10,8.9,10,28.0,10,28.0,10,28.0,10,,10,,10,,10,9.4,10,0,10,,10,,10,827.5,10,827.4,10,826.6,10,827.2,10,,10,,10,,10,,10,,10,,10,93.0,10,90.0,10,92.0,10,92.0,10,11.3,10,10.1,10,8.6,10,,10,,10,,10,,10,,10,,10,,10,,10,,10,,10,1.2,10,,10,6.3,10,5.7,10,7.7,10,9.2,10,5.2,10,7.2,10,,10,2,10,2,10,3,10,3.3,10,1727.0,10
69,Obervellach,Kärnten,46.93528,13.19444,2025-07-11,,10,,10,,10,,10,,10,,10,,10,0,10,0,10,939.0,10,12.5,10,13.3,10,12.3,10,12.7,10,28.0,10,24.0,10,28.0,10,,10,,10,,10,10.0,10,0,10,,10,,10,939.1,10,938.4,10,937.1,10,938.2,10,,10,,10,,10,,10,,10,,10,87.0,10,74.0,10,71.0,10,77.0,10,2.7,10,2.2,10,2.5,10,,10,,10,,10,,10,,10,,10,,10,,10,,10,,10,1.7,10,,10,12.4,10,15.8,10,15.3,10,18.7,10,11.9,10,15.3,10,11.2,10,2,10,2,10,2,10,2.7,10,1322.0,10
70,Poysdorf-Ost,Niederösterreich,48.66917,16.6375,2025-07-11,2.0,10,2.0,10,2.0,10,8.0,10,4.0,10,4.0,10,53.0,10,0,10,0,10,2292.0,10,14.6,10,10.2,10,14.0,10,12.9,10,24.0,10,24.0,10,24.0,10,1,10,1,10,1,10,8.9,10,0,10,0,10,0,10,992.0,10,990.0,10,990.0,10,990.7,10,0,10,0,10,,10,,10,,10,,10,78.0,10,34.0,10,59.0,10,57.0,10,-1.0,10,-1.0,10,-1.0,10,1,10,1,10,1,10,,10,-1.0,10,0,10,-1.0,10,20000.0,10,20000.0,10,20000.0,10,6.9,10,1,10,16.5,10,24.1,10,20.3,10,24.8,10,13.3,10,19.1,10,11.9,10,1,10,1,10,2,10,1.6,10,1623.0,10
71,Preitenegg,Kärnten,46.938333,14.920278,2025-07-11,,10,,10,,10,,10,,10,,10,,10,0,10,0,10,1482.0,10,10.2,10,13.3,10,12.1,10,11.9,10,4.0,10,20.0,10,28.0,10,,10,,10,,10,5.4,10,0,10,,10,,10,897.4,10,897.0,10,896.4,10,896.9,10,,10,,10,,10,,10,,10,,10,77.0,10,86.0,10,79.0,10,81.0,10,4.0,10,-1.0,10,4.0,10,,10,,10,,10,,10,,10,,10,,10,,10,,10,,10,3.6,10,,10,11.2,10,13.5,10,13.4,10,16.2,10,9.6,10,12.9,10,5.4,10,1,10,1,10,1,10,1.1,10,1208.0,10
72,Puchberg am Schneeberg,Niederösterreich,47.79028,15.90694,2025-07-11,,10,,10,,10,,10,,10,,10,,10,0,10,0,10,1281.0,10,11.7,10,12.9,10,11.2,10,11.9,10,24.0,10,32.0,10,28.0,10,,10,,10,,10,12.9,10,0,10,,10,,10,948.6,10,947.6,10,947.8,10,948.0,10,,10,,10,,10,,10,,10,,10,68.0,10,62.0,10,62.0,10,64.0,10,1.7,10,3.8,10,1.7,10,,10,,10,,10,,10,,10,,10,,10,,10,,10,,10,3.2,10,,10,15.2,10,18.2,10,15.9,10,20.1,10,12.5,10,16.3,10,,10,2,10,1,10,2,10,2.1,10,1537.0,10
73,Radstadt-Tandalier,Salzburg,47.38,13.44083,2025-07-11,,10,,10,,10,,10,,10,,10,,10,0,10,0,10,1065.0,10,13.4,10,12.6,10,12.8,10,12.9,10,8.0,10,4.0,10,24.0,10,,10,,10,,10,5.8,10,0,10,,10,,10,923.2,10,923.2,10,921.8,10,922.7,10,,10,,10,,10,,10,,10,,10,96.0,10,84.0,10,85.0,10,88.0,10,8.9,10,4.4,10,5.5,10,,10,,10,,10,,10,,10,,10,,10,,10,,10,,10,2.1,10,,10,11.9,10,13.1,10,13.1,10,17.9,10,10.4,10,14.2,10,10.0,10,1,10,2,10,1,10,1.6,10,1235.0,10
75,Ranshofen Braunau,Oberösterreich,48.22417,13.02833,2025-07-11,,10,,10,,10,,10,,10,,10,,10,0,10,0,10,1593.0,10,14.9,10,13.5,10,14.7,10,14.4,10,24.0,10,24.0,10,16.0,10,,10,,10,,10,7.5,10,0,10,,10,,10,971.6,10,970.7,10,969.5,10,970.6,10,,10,,10,,10,,10,,10,,10,90.0,10,58.0,10,64.0,10,71.0,10,1.9,10,1.2,10,1.6,10,,10,,10,,10,,10,,10,,10,,10,,10,,10,,10,4.2,10,,10,14.6,10,20.0,10,19.8,10,22.2,10,13.2,10,17.7,10,13.3,10,1,10,2,10,1,10,1.6,10,2001.0,10
76,Reutte,Tirol,47.49444,10.71528,2025-07-11,,10,,10,,10,,10,,10,,10,,10,0,10,0,10,1458.0,10,10.6,10,11.5,10,12.5,10,11.5,10,16.0,10,32.0,10,32.0,10,,10,,10,,10,10.6,10,0,10,,10,,10,922.5,10,920.7,10,920.0,10,921.1,10,,10,,10,,10,,10,,10,,10,73.0,10,51.0,10,62.0,10,62.0,10,0.3,10,-1.0,10,-1.0,10,,10,,10,,10,,10,,10,,10,,10,,10,,10,,10,3.3,10,,10,12.5,10,19.5,10,17.7,10,20.5,10,10.3,10,15.4,10,9.5,10,2,10,1,10,2,10,2.1,10,1521.0,10
77,Rohrbach,Oberösterreich,48.56722,14.00444,2025-07-11,1.0,10,2.0,10,1.0,10,10.0,10,7.0,10,10.0,10,,10,0,10,0,10,1548.0,10,13.1,10,11.4,10,14.6,10,13.0,10,32.0,10,12.0,10,4.0,10,0,10,1,10,1,10,8.9,10,1,10,,10,0,10,946.3,10,946.0,10,945.2,10,945.8,10,,10,,10,,10,,10,,10,,10,95.0,10,74.0,10,94.0,10,88.0,10,4.3,10,2.2,10,4.3,10,,10,,10,,10,,10,,10,0,10,-1.0,10,10000.0,10,5000.0,10,20000.0,10,3.5,10,,10,11.8,10,13.4,10,13.6,10,19.1,10,8.9,10,14.0,10,7.4,10,2,10,2,10,2,10,2.7,10,1357.0,10
78,Rauris,Salzburg,47.22353,12.99262,2025-07-11,2.0,10,2.0,10,2.0,10,10.0,10,10.0,10,7.0,10,90.0,10,0,10,0,10,671.0,10,11.8,10,12.3,10,12.0,10,12.0,10,20.0,10,16.0,10,20.0,10,2,10,2,10,2,10,5.7,10,0,10,0,10,0,10,912.1,10,911.5,10,910.7,10,911.4,10,0,10,0,10,,10,,10,,10,,10,91.0,10,82.0,10,84.0,10,86.0,10,12.2,10,3.1,10,11.5,10,,10,,10,,10,,10,-1.0,10,0,10,-1.0,10,2000.0,10,4000.0,10,15000.0,10,0.7,10,0,10,10.8,10,13.0,10,12.3,10,15.1,10,10.6,10,12.9,10,10.0,10,1,10,1,10,1,10,1.1,10,1532.0,10
80,Reichenau an der Rax,Niederösterreich,47.69972,15.83694,2025-07-11,2.0,10,2.0,10,1.0,10,6.0,10,6.0,10,3.0,10,50.0,10,0,10,0,10,1680.0,10,11.9,10,10.4,10,12.9,10,11.7,10,28.0,10,28.0,10,24.0,10,2,10,1,10,2,10,16.5,10,0,10,0,10,0,10,959.8,10,958.6,10,959.0,10,959.1,10,0,10,0,10,,10,,10,,10,,10,68.0,10,44.0,10,82.0,10,65.0,10,3.2,10,0.4,10,3.2,10,,10,,10,,10,,10,-1.0,10,0,10,-1.0,10,5000.0,10,20000.0,10,20000.0,10,3.5,10,0,10,15.4,10,20.2,10,13.8,10,21.7,10,12.2,10,17.0,10,10.7,10,2,10,3,10,2,10,3.3,10,1530.0,10
81,Retz Windmühle,Niederösterreich,48.76111,15.94167,2025-07-11,,10,,10,,10,,10,,10,,10,,10,0,10,0,10,2071.0,10,13.3,10,11.4,10,11.2,10,12.0,10,28.0,10,24.0,10,24.0,10,,10,,10,,10,10.7,10,0,10,,10,,10,978.8,10,977.0,10,976.9,10,977.6,10,,10,,10,,10,,10,,10,,10,78.0,10,43.0,10,50.0,10,57.0,10,-1.0,10,-1.0,10,-1.0,10,,10,,10,,10,,10,,10,,10,,10,,10,,10,,10,6.2,10,,10,15.0,10,22.1,10,19.4,10,23.8,10,13.8,10,18.8,10,13.4,10,4,10,3,10,3,10,5.3,10,1946.0,10
82,Rudolfshütte,Salzburg,47.13492,12.62594,2025-07-11,2.0,10,2.0,10,2.0,10,10.0,10,10.0,10,9.0,10,97.0,10,0,10,0,10,476.0,10,7.0,10,6.5,10,6.5,10,6.7,10,32.0,10,16.0,10,32.0,10,5,10,5,10,5,10,13.4,10,1,10,0,10,1,10,771.9,10,771.8,10,771.3,10,771.7,10,0,10,0,10,,10,,10,,10,,10,97.0,10,89.0,10,78.0,10,88.0,10,21.5,10,6.3,10,13.9,10,10,10,1,10,10,10,,10,-1.0,10,1,10,-1.0,10,10.0,10,2000.0,10,22000.0,10,0.0,10,0,10,2.4,10,2.5,10,4.4,10,4.4,10,1.6,10,3.0,10,,10,2,10,1,10,2,10,2.1,10,1541.0,10
83,Saalbach,Salzburg,47.38789,12.64844,2025-07-11,,10,,10,,10,,10,,10,,10,,10,0,10,0,10,920.0,10,12.4,10,14.3,10,13.6,10,13.4,10,16.0,10,12.0,10,8.0,10,,10,,10,,10,5.3,10,0,10,,10,,10,907.6,10,906.5,10,905.9,10,906.7,10,,10,,10,,10,,10,,10,,10,96.0,10,88.0,10,90.0,10,91.0,10,6.7,10,5.1,10,6.0,10,,10,,10,,10,,10,,10,,10,,10,,10,,10,,10,1.3,10,,10,10.8,10,14.3,10,13.2,10,15.5,10,10.3,10,12.9,10,10.1,10,1,10,1,10,1,10,1.1,10,1436.0,10
85,Schmittenhöhe,Salzburg,47.32872,12.73794,2025-07-11,,10,,10,,10,,10,,10,,10,,10,0,10,0,10,923.0,10,8.6,10,10.1,10,8.5,10,9.1,10,28.0,10,28.0,10,24.0,10,,10,,10,,10,14.9,10,0,10,,10,,10,806.7,10,806.5,10,805.9,10,806.4,10,,10,,10,,10,,10,,10,,10,99.0,10,95.0,10,87.0,10,94.0,10,16.1,10,5.3,10,13.4,10,,10,,10,,10,,10,,10,,10,,10,,10,,10,,10,0.9,10,,10,5.0,10,7.9,10,6.6,10,8.4,10,4.2,10,6.3,10,,10,3,10,4,10,4,10,6.0,10,54.0,10
86,Schöckl,Steiermark,47.19861,15.46639,2025-07-11,,10,,10,,10,,10,,10,,10,,10,0,10,0,10,1871.0,10,9.1,10,9.9,10,8.9,10,9.3,10,28.0,10,20.0,10,28.0,10,,10,,10,,10,13.3,10,0,10,,10,,10,857.0,10,856.8,10,856.3,10,856.7,10,,10,,10,,10,,10,,10,,10,78.0,10,76.0,10,80.0,10,78.0,10,7.8,10,-1.0,10,7.8,10,,10,,10,,10,,10,,10,,10,,10,,10,,10,,10,5.5,10,,10,9.3,10,10.9,10,8.6,10,14.0,10,6.7,10,10.4,10,,10,2,10,2,10,4,10,4.0,10,219.0,10
87,Seefeld,Tirol,47.32478,11.17542,2025-07-11,,10,,10,,10,,10,,10,,10,,10,0,10,0,10,1235.0,10,10.2,10,10.4,10,11.8,10,10.8,10,16.0,10,8.0,10,28.0,10,,10,,10,,10,14.5,10,0,10,,10,,10,885.7,10,884.2,10,885.2,10,885.0,10,,10,,10,,10,,10,,10,,10,76.0,10,54.0,10,85.0,10,72.0,10,1.0,10,-1.0,10,0.8,10,,10,,10,,10,,10,,10,,10,,10,,10,,10,,10,1.9,10,,10,11.4,10,17.0,10,11.9,10,18.9,10,6.1,10,12.5,10,4.1,10,1,10,1,10,2,10,1.6,10,1316.0,10
88,Semmering,Niederösterreich,47.63325,15.82839,2025-07-11,1.0,10,1.0,10,2.0,10,7.0,10,6.0,10,10.0,10,77.0,10,0,10,0,10,1445.0,10,11.2,10,8.9,10,11.2,10,10.4,10,20.0,10,12.0,10,20.0,10,0,10,0,10,2,10,10.4,10,0,10,0,10,0,10,904.5,10,903.6,10,904.1,10,904.1,10,0,10,0,10,,10,,10,,10,,10,89.0,10,49.0,10,89.0,10,76.0,10,1.6,10,-1.0,10,1.6,10,,10,0,10,,10,,10,-1.0,10,0,10,-1.0,10,20000.0,10,25000.0,10,15000.0,10,3.0,10,0,10,10.4,10,16.1,10,10.4,10,16.9,10,8.1,10,12.5,10,7.7,10,2,10,1,10,2,10,2.1,10,1535.0,10
89,Stift Zwettl,Niederösterreich,48.61778,15.20361,2025-07-11,,10,,10,,10,,10,,10,,10,,10,0,10,0,10,1914.0,10,13.8,10,10.7,10,13.5,10,12.7,10,16.0,10,28.0,10,20.0,10,,10,,10,,10,8.4,10,1,10,,10,,10,958.2,10,956.6,10,956.8,10,957.2,10,,10,,10,,10,,10,,10,,10,93.0,10,45.0,10,89.0,10,76.0,10,1.1,10,1.1,10,1.1,10,,10,,10,,10,,10,,10,,10,,10,,10,,10,,10,4.8,10,,10,12.9,10,20.3,10,13.2,10,22.0,10,10.5,10,16.3,10,11.0,10,1,10,1,10,1,10,1.1,10,1135.0,10
90,St.Andrä im Lavanttal,Kärnten,46.76417,14.82806,2025-07-11,,10,,10,,10,,10,,10,,10,,10,0,10,0,10,1261.0,10,12.7,10,15.3,10,15.6,10,14.5,10,4.0,10,24.0,10,20.0,10,,10,,10,,10,5.4,10,1,10,,10,,10,970.4,10,970.0,10,968.8,10,969.7,10,,10,,10,,10,,10,,10,,10,76.0,10,89.0,10,84.0,10,83.0,10,3.3,10,-1.0,10,3.3,10,,10,,10,,10,,10,,10,,10,,10,,10,,10,,10,3.8,10,,10,14.7,10,15.2,10,16.4,10,21.0,10,12.7,10,16.9,10,12.0,10,1,10,1,10,1,10,1.1,10,1119.0,10
91,Feistritz ob Bleiburg,Kärnten,46.561389,14.765,2025-07-11,,10,,10,,10,,10,,10,,10,,10,0,10,0,10,1327.0,10,12.7,10,13.0,10,13.6,10,13.1,10,0.0,10,32.0,10,28.0,10,,10,,10,,10,8.2,10,0,10,,10,,10,957.4,10,956.9,10,955.6,10,956.6,10,,10,,10,,10,,10,,10,,10,82.0,10,67.0,10,68.0,10,72.0,10,0.3,10,1.2,10,0.2,10,,10,,10,,10,,10,,10,,10,,10,,10,,10,,10,3.5,10,,10,13.5,10,17.0,10,17.5,10,19.8,10,12.2,10,16.0,10,11.0,10,0,10,2,10,1,10,1.2,10,1605.0,10
92,St.Michael im Lungau,Salzburg,47.09447,13.62269,2025-07-11,,10,,10,,10,,10,,10,,10,,10,0,10,0,10,1225.0,10,11.5,10,11.7,10,11.8,10,11.7,10,24.0,10,24.0,10,24.0,10,,10,,10,,10,8.0,10,0,10,,10,,10,899.5,10,899.5,10,897.6,10,898.9,10,,10,,10,,10,,10,,10,,10,91.0,10,89.0,10,80.0,10,87.0,10,4.0,10,4.8,10,4.0,10,,10,,10,,10,,10,,10,,10,,10,,10,,10,,10,3.1,10,,10,10.4,10,11.0,10,12.8,10,16.3,10,9.0,10,12.7,10,7.6,10,2,10,2,10,2,10,2.7,10,1326.0,10
93,St.Pölten Landhaus,Niederösterreich,48.19972,15.63111,2025-07-11,1.0,10,2.0,10,2.0,10,10.0,10,10.0,10,10.0,10,100.0,10,0,10,0,10,1408.0,10,14.7,10,15.0,10,15.0,10,14.9,10,20.0,10,24.0,10,20.0,10,2,10,1,10,1,10,10.3,10,0,10,0,10,0,10,985.3,10,984.5,10,983.5,10,984.4,10,0,10,0,10,,10,,10,,10,,10,93.0,10,69.0,10,72.0,10,78.0,10,2.9,10,0.7,10,2.9,10,,10,,10,,10,,10,-1.0,10,0,10,-1.0,10,10000.0,10,10000.0,10,10000.0,10,3.3,10,0,10,13.9,10,18.9,10,18.2,10,20.8,10,13.7,10,17.3,10,13.4,10,2,10,3,10,3,10,3.9,10,1728.0,10
94,St.Radegund,Steiermark,47.18211,15.48978,2025-07-11,,10,,10,,10,,10,,10,,10,,10,0,10,0,10,1626.0,10,10.4,10,11.0,10,13.0,10,11.5,10,20.0,10,20.0,10,28.0,10,,10,,10,,10,12.8,10,0,10,,10,,10,932.6,10,931.9,10,931.9,10,932.1,10,,10,,10,,10,,10,,10,,10,58.0,10,55.0,10,85.0,10,66.0,10,7.8,10,-1.0,10,7.8,10,,10,,10,,10,,10,,10,,10,,10,,10,,10,,10,4.7,10,,10,15.8,10,17.5,10,13.4,10,20.9,10,12.8,10,16.9,10,12.1,10,2,10,2,10,2,10,2.7,10,23.0,10
95,St.Veit an der Glan,Kärnten,46.73917,14.38556,2025-07-11,,10,,10,,10,,10,,10,,10,,10,0,10,0,10,1207.0,10,12.7,10,14.5,10,14.0,10,13.7,10,32.0,10,4.0,10,24.0,10,,10,,10,,10,8.4,10,0,10,,10,,10,964.1,10,963.4,10,962.4,10,963.3,10,,10,,10,,10,,10,,10,,10,76.0,10,88.0,10,72.0,10,79.0,10,2.1,10,0.0,10,2.1,10,,10,,10,,10,,10,,10,,10,,10,,10,,10,,10,3.9,10,,10,14.7,10,14.5,10,17.1,10,19.7,10,12.8,10,16.3,10,10.4,10,2,10,2,10,1,10,2.1,10,200.0,10
97,Stolzalpe,Steiermark,47.12303,14.18822,2025-07-11,,10,,10,,10,,10,,10,,10,,10,0,10,0,10,1401.0,10,11.0,10,9.9,10,10.0,10,10.3,10,28.0,10,28.0,10,4.0,10,,10,,10,,10,10.3,10,0,10,,10,,10,874.1,10,874.0,10,873.0,10,873.7,10,,10,,10,,10,,10,,10,,10,93.0,10,86.0,10,74.0,10,84.0,10,6.7,10,3.2,10,6.7,10,,10,,10,,10,,10,,10,,10,,10,,10,,10,,10,3.4,10,,10,9.4,10,9.0,10,11.5,10,13.9,10,7.5,10,10.7,10,,10,1,10,2,10,1,10,1.6,10,1115.0,10
98,Tamsweg,Salzburg,47.13306,13.80833,2025-07-11,2.0,10,2.0,10,1.0,10,10.0,10,10.0,10,4.0,10,80.0,10,0,10,0,10,1206.0,10,11.7,10,11.5,10,11.7,10,11.6,10,0.0,10,28.0,10,32.0,10,2,10,2,10,1,10,5.8,10,0,10,0,10,0,10,902.7,10,902.5,10,900.7,10,902.0,10,0,10,0,10,,10,,10,,10,,10,92.0,10,84.0,10,78.0,10,85.0,10,1.8,10,3.8,10,1.7,10,1,10,1,10,1,10,,10,-1.0,10,0,10,-1.0,10,3000.0,10,15000.0,10,30000.0,10,2.6,10,0,10,10.5,10,11.6,10,13.1,10,16.9,10,9.7,10,13.3,10,10.2,10,0,10,1,10,1,10,0.7,10,1308.0,10
100,Villach Stadt,Kärnten,46.61806,13.87389,2025-07-11,1.0,10,1.0,10,1.0,10,5.0,10,6.0,10,5.0,10,53.0,10,0,10,0,10,989.0,10,11.3,10,13.6,10,13.4,10,12.8,10,24.0,10,8.0,10,12.0,10,0,10,0,10,2,10,8.1,10,0,10,0,10,0,10,960.5,10,959.0,10,958.9,10,959.5,10,0,10,0,10,,10,,10,,10,,10,65.0,10,59.0,10,73.0,10,66.0,10,5.4,10,0.1,10,5.4,10,,10,,10,,10,,10,-1.0,10,0,10,-1.0,10,15000.0,10,15000.0,10,15000.0,10,1.8,10,0,10,15.3,10,19.8,10,16.2,10,20.8,10,12.7,10,16.8,10,11.0,10,1,10,1,10,1,10,1.1,10,1514.0,10
101,Waidhofen an der Ybbs,Niederösterreich,47.94556,14.80972,2025-07-11,,10,,10,,10,,10,,10,,10,,10,0,10,0,10,1724.0,10,13.5,10,13.8,10,14.2,10,13.8,10,4.0,10,20.0,10,32.0,10,,10,,10,,10,5.7,10,1,10,,10,,10,973.7,10,972.7,10,972.3,10,972.9,10,,10,,10,,10,,10,,10,,10,93.0,10,71.0,10,78.0,10,81.0,10,0.2,10,6.4,10,0.2,10,,10,,10,,10,,10,,10,,10,,10,,10,,10,,10,4.5,10,,10,12.6,10,17.1,10,16.0,10,20.5,10,11.5,10,16.0,10,,10,2,10,1,10,1,10,1.6,10,1349.0,10
102,Weißensee-Gatschach,Kärnten,46.71861,13.28583,2025-07-11,,10,,10,,10,,10,,10,,10,,10,0,10,0,10,1077.0,10,11.3,10,12.8,10,11.9,10,12.0,10,4.0,10,8.0,10,28.0,10,,10,,10,,10,12.1,10,0,10,,10,,10,909.7,10,908.7,10,908.2,10,908.9,10,,10,,10,,10,,10,,10,,10,77.0,10,81.0,10,75.0,10,78.0,10,1.1,10,-1.0,10,1.1,10,,10,,10,,10,,10,,10,,10,,10,,10,,10,,10,2.2,10,,10,12.7,10,13.9,10,13.9,10,16.9,10,10.4,10,13.7,10,9.9,10,1,10,1,10,2,10,1.6,10,1448.0,10
103,Weitensfeld,Kärnten,46.84917,14.19083,2025-07-11,,10,,10,,10,,10,,10,,10,,10,0,10,0,10,1287.0,10,11.9,10,13.3,10,15.1,10,13.4,10,0.0,10,8.0,10,24.0,10,,10,,10,,10,9.0,10,0,10,,10,,10,936.4,10,935.9,10,934.8,10,935.7,10,,10,,10,,10,,10,,10,,10,87.0,10,86.0,10,86.0,10,86.0,10,11.0,10,0.4,10,11.0,10,,10,,10,,10,,10,,10,,10,,10,,10,,10,,10,3.4,10,,10,11.7,10,13.5,10,15.5,10,19.3,10,9.8,10,14.6,10,9.1,10,0,10,1,10,1,10,0.7,10,1116.0,10
104,Weyer,Oberösterreich,47.85719,14.66572,2025-07-11,0.0,10,,10,,10,6.0,10,,10,,10,,10,0,10,0,10,1275.0,10,14.0,10,13.6,10,14.4,10,14.0,10,12.0,10,20.0,10,28.0,10,1,10,,10,,10,7.1,10,1,10,0,10,0,10,,10,,10,,10,,10,0,10,0,10,,10,,10,,10,,10,90.0,10,84.0,10,90.0,10,88.0,10,8.9,10,12.4,10,8.9,10,,10,,10,,10,,10,-1.0,10,0,10,-1.0,10,10000.0,10,,10,,10,2.4,10,0,10,13.6,10,14.2,10,14.0,10,19.7,10,11.2,10,15.5,10,10.3,10,1,10,1,10,1,10,1.1,10,1338.0,10
105,Wien Hohe Warte,Wien,48.24861,16.35639,2025-07-11,2.0,10,2.0,10,1.0,10,9.0,10,9.0,10,2.0,10,67.0,10,0,10,0,10,1725.0,10,14.2,10,15.5,10,13.8,10,14.5,10,28.0,10,24.0,10,24.0,10,1,10,2,10,1,10,12.8,10,0,10,0,10,0,10,991.8,10,990.7,10,989.7,10,990.7,10,0,10,0,10,,10,,10,,10,,10,79.0,10,85.0,10,65.0,10,76.0,10,2.3,10,0.3,10,2.3,10,,10,,10,,10,,10,-1.0,10,0,10,-1.0,10,45000.0,10,20000.0,10,70000.0,10,6.2,10,0,10,15.8,10,16.1,10,18.5,10,22.7,10,15.2,10,19.0,10,13.3,10,3,10,3,10,4,10,5.3,10,1313.0,10
106,Wien Mariabrunn,Wien,48.20694,16.22944,2025-07-11,,10,,10,,10,,10,,10,,10,,10,0,10,0,10,1838.0,10,14.6,10,15.3,10,13.7,10,14.5,10,24.0,10,24.0,10,24.0,10,,10,,10,,10,8.9,10,1,10,,10,,10,989.9,10,989.0,10,988.1,10,989.0,10,,10,,10,,10,,10,,10,,10,84.0,10,80.0,10,66.0,10,77.0,10,4.0,10,0.1,10,4.0,10,,10,,10,,10,,10,,10,,10,,10,,10,,10,,10,6.3,10,,10,15.3,10,16.8,10,18.1,10,23.9,10,13.8,10,18.9,10,,10,1,10,1,10,2,10,1.6,10,1630.0,10
107,Wien Unterlaa,Wien,48.125,16.41944,2025-07-11,,10,,10,,10,,10,,10,,10,,10,0,10,0,10,1914.0,10,13.5,10,12.9,10,13.0,10,13.1,10,28.0,10,28.0,10,24.0,10,,10,,10,,10,12.6,10,0,10,,10,,10,992.7,10,991.5,10,990.9,10,991.7,10,,10,,10,,10,,10,,10,,10,70.0,10,59.0,10,57.0,10,62.0,10,0.6,10,-1.0,10,0.6,10,,10,,10,,10,,10,,10,,10,,10,,10,,10,,10,6.4,10,,10,17.0,10,18.9,10,19.6,10,23.4,10,15.1,10,19.3,10,14.3,10,3,10,3,10,3,10,4.6,10,1317.0,10
108,Windischgarsten,Oberösterreich,47.72028,14.32611,2025-07-11,2.0,10,2.0,10,2.0,10,9.0,10,5.0,10,4.0,10,60.0,10,0,10,0,10,,10,12.9,10,11.2,10,13.2,10,12.4,10,12.0,10,28.0,10,12.0,10,2,10,0,10,1,10,9.2,10,0,10,0,10,0,10,948.5,10,947.0,10,946.8,10,947.4,10,0,10,0,10,,10,,10,,10,,10,93.0,10,53.0,10,68.0,10,71.0,10,0.2,10,6.2,10,-1.0,10,,10,,10,,10,,10,-1.0,10,0,10,-1.0,10,2000.0,10,10000.0,10,12000.0,10,3.3,10,0,10,11.9,10,18.4,10,17.1,10,19.4,10,10.8,10,15.1,10,10.6,10,1,10,3,10,1,10,2.2,10,1257.0,10
109,St.Wolfgang,Oberösterreich,47.74028,13.44194,2025-07-11,,10,,10,,10,,10,,10,,10,,10,0,10,0,10,,10,13.8,10,13.6,10,14.0,10,13.8,10,8.0,10,8.0,10,28.0,10,,10,,10,,10,5.7,10,0,10,,10,,10,954.7,10,954.4,10,953.1,10,954.1,10,,10,,10,,10,,10,,10,,10,91.0,10,69.0,10,72.0,10,77.0,10,2.9,10,3.0,10,2.2,10,,10,,10,,10,,10,,10,,10,,10,,10,,10,,10,3.1,10,,10,13.2,10,17.3,10,17.1,10,19.9,10,12.3,10,16.1,10,,10,1,10,1,10,1,10,1.1,10,1705.0,10
111,Wolfsegg,Oberösterreich,48.10542,13.67092,2025-07-11,2.0,0,1.0,0,1.0,0,8.0,0,7.0,0,7.0,0,73.0,0,0,0,0,0,1505.0,0,12.5,0,13.4,0,12.3,0,12.7,0,28.0,0,24.0,0,28.0,0,2,0,1,0,1,0,14.3,0,1,0,0,0,0,0,945.8,0,945.5,0,944.6,0,945.3,0,0,0,0,0,,0,,0,,0,,0,78.0,0,75.0,0,63.0,0,72.0,0,1.0,0,3.0,0,1.0,0,1,0,1,0,1,0,,0,-1.0,0,0,0,-1.0,0,15000.0,0,15000.0,0,15000.0,0,4.0,0,0,0,14.1,0,15.8,0,17.2,0,19.4,0,11.8,0,15.6,0,11.4,0,2,0,3,0,1,0,2.8,0,1151.0,0
112,Wiener Neustadt Flugplatz,Niederösterreich,47.83233,16.23147,2025-07-11,1.0,10,1.0,10,0.0,10,7.0,10,8.0,10,4.0,10,63.0,10,0,10,0,10,1902.0,10,12.9,10,10.7,10,11.9,10,11.8,10,24.0,10,28.0,10,20.0,10,1,10,1,10,1,10,15.5,10,0,10,0,10,0,10,983.3,10,982.0,10,982.1,10,982.5,10,0,10,0,10,,10,,10,,10,,10,63.0,10,40.0,10,53.0,10,52.0,10,0.4,10,0.1,10,0.4,10,1,10,1,10,1,10,,10,-1.0,10,0,10,-1.0,10,40000.0,10,45000.0,10,45000.0,10,6.2,10,0,10,17.9,10,22.2,10,19.4,10,23.1,10,13.9,10,18.5,10,12.1,10,3,10,3,10,2,10,3.9,10,1548.0,10
113,Zell am See,Salzburg,47.29,12.78639,2025-07-11,,10,,10,,10,,10,,10,,10,,10,0,10,0,10,,10,13.4,10,13.3,10,13.5,10,13.4,10,12.0,10,8.0,10,8.0,10,,10,,10,,10,14.4,10,1,10,,10,,10,932.5,10,931.5,10,930.8,10,931.6,10,,10,,10,,10,,10,,10,,10,96.0,10,81.0,10,86.0,10,88.0,10,9.6,10,2.7,10,9.1,10,,10,,10,,10,,10,,10,,10,,10,,10,,10,,10,1.3,10,,10,12.0,10,14.4,10,13.8,10,16.1,10,11.5,10,13.8,10,,10,1,10,2,10,1,10,1.6,10,1542.0,10
115,Zeltweg,Steiermark,47.19983,14.74689,2025-07-11,0.0,10,1.0,10,1.0,10,2.0,10,8.0,10,4.0,10,47.0,10,0,10,0,10,1614.0,10,11.7,10,12.4,10,12.2,10,12.1,10,4.0,10,28.0,10,4.0,10,0,10,1,10,0,10,9.7,10,0,10,0,10,0,10,939.6,10,938.4,10,938.1,10,938.7,10,0,10,0,10,,10,,10,,10,,10,79.0,10,64.0,10,67.0,10,70.0,10,0.2,10,-1.0,10,0.2,10,1,10,0,10,1,10,,10,-1.0,10,0,10,-1.0,10,20000.0,10,20000.0,10,20000.0,10,5.8,10,0,10,12.9,10,17.0,10,16.1,10,19.3,10,9.2,10,14.3,10,7.1,10,1,10,1,10,2,10,1.6,10,1433.0,10
116,Deutschlandsberg,Steiermark,46.82167,15.22694,2025-07-11,1.0,10,2.0,10,1.0,10,9.0,10,10.0,10,8.0,10,90.0,10,0,10,0,10,1261.0,10,13.9,10,13.4,10,14.0,10,13.8,10,0.0,10,20.0,10,8.0,10,1,10,1,10,1,10,5.6,10,0,10,0,10,0,10,975.5,10,974.1,10,974.5,10,974.7,10,0,10,0,10,,10,,10,,10,,10,76.0,10,55.0,10,64.0,10,65.0,10,0.8,10,0.1,10,0.7,10,1,10,0,10,1,10,,10,-1.0,10,0,10,-1.0,10,70000.0,10,70000.0,10,70000.0,10,1.5,10,0,10,16.1,10,20.7,10,19.0,10,23.1,10,12.6,10,17.9,10,10.3,10,0,10,1,10,1,10,0.7,10,1704.0,10
118,Kitzbühel,Tirol,47.44389,12.38917,2025-07-11,,10,,10,,10,,10,,10,,10,,10,0,10,0,10,1002.0,10,13.2,10,12.6,10,14.1,10,13.3,10,16.0,10,12.0,10,20.0,10,,10,,10,,10,11.7,10,1,10,,10,,10,931.0,10,929.5,10,929.5,10,930.0,10,,10,,10,,10,,10,,10,,10,91.0,10,61.0,10,89.0,10,80.0,10,11.1,10,1.8,10,9.2,10,,10,,10,,10,,10,,10,,10,,10,,10,,10,,10,2.0,10,,10,12.5,10,18.0,10,13.9,10,18.9,10,12.0,10,15.5,10,11.5,10,1,10,2,10,1,10,1.6,10,1441.0,10
119,St.Anton am Arlberg,Tirol,47.13139,10.26667,2025-07-11,,10,,10,,10,,10,,10,,10,,10,0,10,0,10,1700.0,10,10.0,10,9.7,10,10.1,10,9.9,10,8.0,10,24.0,10,24.0,10,,10,,10,,10,8.3,10,0,10,,10,,10,873.7,10,872.9,10,872.0,10,872.9,10,,10,,10,,10,,10,,10,,10,68.0,10,54.0,10,58.0,10,60.0,10,0.2,10,-1.0,10,-1.0,10,,10,,10,,10,,10,,10,,10,,10,,10,,10,,10,4.0,10,,10,12.7,10,15.9,10,15.4,10,18.3,10,7.3,10,12.8,10,6.2,10,1,10,2,10,2,10,2.1,10,1214.0,10
120,Ferlach,Kärnten,46.53111,14.31417,2025-07-11,1.0,10,2.0,10,2.0,10,3.0,10,6.0,10,7.0,10,53.0,10,0,10,0,10,1314.0,10,12.1,10,12.4,10,13.8,10,12.8,10,24.0,10,32.0,10,16.0,10,1,10,0,10,1,10,9.6,10,0,10,0,10,0,10,964.3,10,963.1,10,962.7,10,963.4,10,0,10,0,10,,10,,10,,10,,10,66.0,10,52.0,10,77.0,10,65.0,10,0.4,10,0.2,10,0.4,10,,10,,10,,10,,10,-1.0,10,0,10,-1.0,10,20000.0,10,30000.0,10,20000.0,10,3.0,10,0,10,16.2,10,20.3,10,15.8,10,22.2,10,12.7,10,17.5,10,11.7,10,1,10,2,10,1,10,1.6,10,1511.0,10
121,Nauders,Tirol,46.89111,10.49694,2025-07-11,0.0,10,0.0,10,0.0,10,4.0,10,3.0,10,5.0,10,40.0,10,0,10,0,10,1606.0,10,9.8,10,10.9,10,9.0,10,9.9,10,28.0,10,28.0,10,28.0,10,1,10,2,10,2,10,6.8,10,0,10,0,10,0,10,869.8,10,867.5,10,867.0,10,868.1,10,0,10,0,10,,10,,10,,10,,10,83.0,10,57.0,10,54.0,10,65.0,10,-1.0,10,-1.0,10,-1.0,10,0,10,0,10,0,10,,10,-1.0,10,0,10,-1.0,10,10000.0,10,25000.0,10,25000.0,10,3.2,10,1,10,9.4,10,16.8,10,14.6,10,18.8,10,6.1,10,12.5,10,4.4,10,1,10,2,10,1,10,1.6,10,1444.0,10
122,Kanzelhöhe,Kärnten,46.67722,13.90194,2025-07-11,2.0,10,2.0,10,,10,9.0,10,9.0,10,,10,,10,0,10,0,10,1058.0,10,9.4,10,11.7,10,9.1,10,10.1,10,28.0,10,4.0,10,28.0,10,1,10,0,10,,10,8.0,10,1,10,0,10,0,10,849.1,10,848.4,10,848.1,10,848.5,10,0,10,0,10,,10,,10,,10,,10,80.0,10,77.0,10,83.0,10,80.0,10,10.3,10,0.4,10,10.3,10,,10,,10,,10,0.0,10,-1.0,10,0,10,-1.0,10,80000.0,10,20000.0,10,,10,2.7,10,0,10,9.3,10,13.3,10,8.3,10,14.2,10,6.8,10,10.5,10,5.7,10,2,10,1,10,2,10,2.1,10,1432.0,10
124,Seckau,Steiermark,47.27083,14.77861,2025-07-11,1.0,10,2.0,10,2.0,10,6.0,10,10.0,10,3.0,10,63.0,10,0,10,0,10,1682.0,10,12.0,10,13.6,10,12.6,10,12.7,10,0.0,10,8.0,10,24.0,10,1,10,1,10,1,10,5.4,10,0,10,0,10,0,10,917.8,10,917.1,10,916.8,10,917.2,10,0,10,0,10,,10,,10,,10,,10,74.0,10,83.0,10,77.0,10,78.0,10,4.2,10,0.6,10,4.2,10,1,10,1,10,1,10,,10,-1.0,10,0,10,-1.0,10,8000.0,10,6000.0,10,12000.0,10,6.4,10,0,10,14.3,10,14.4,10,14.4,10,17.7,10,7.2,10,12.5,10,6.0,10,0,10,2,10,1,10,1.2,10,1530.0,10
126,Haiming,Tirol,47.25972,10.88944,2025-07-11,,10,,10,,10,,10,,10,,10,,10,0,10,0,10,1628.0,10,11.5,10,11.0,10,12.6,10,11.7,10,20.0,10,8.0,10,8.0,10,,10,,10,,10,11.9,10,0,10,,10,,10,942.5,10,939.7,10,940.3,10,940.8,10,,10,,10,,10,,10,,10,,10,70.0,10,38.0,10,62.0,10,57.0,10,0.3,10,-1.0,10,-1.0,10,,10,,10,,10,,10,,10,,10,,10,,10,,10,,10,2.9,10,,10,14.4,10,23.5,10,17.8,10,25.4,10,11.7,10,18.6,10,9.5,10,2,10,1,10,2,10,2.1,10,1547.0,10
127,Rinn,Tirol,47.24917,11.50389,2025-07-11,,10,,10,,10,,10,,10,,10,,10,0,10,0,10,1660.0,10,11.3,10,11.8,10,13.1,10,12.1,10,4.0,10,4.0,10,32.0,10,,10,,10,,10,7.4,10,0,10,,10,,10,913.3,10,911.3,10,911.9,10,912.2,10,,10,,10,,10,,10,,10,,10,75.0,10,52.0,10,77.0,10,68.0,10,0.9,10,-1.0,10,0.6,10,,10,,10,,10,,10,,10,,10,,10,,10,,10,,10,3.3,10,,10,13.1,10,19.6,10,15.0,10,20.1,10,11.1,10,15.6,10,9.0,10,1,10,2,10,1,10,1.6,10,1522.0,10
129,Lofer Ort,Salzburg,47.58444,12.69528,2025-07-11,2.0,10,2.0,10,2.0,10,10.0,10,10.0,10,10.0,10,100.0,10,0,10,0,10,1049.0,10,13.5,10,14.4,10,14.5,10,14.1,10,16.0,10,12.0,10,20.0,10,2,10,2,10,2,10,8.8,10,1,10,0,10,0,10,946.5,10,945.3,10,945.3,10,945.7,10,0,10,0,10,,10,,10,,10,,10,90.0,10,73.0,10,88.0,10,84.0,10,6.2,10,2.2,10,2.8,10,1,10,1,10,1,10,,10,-1.0,10,0,10,-1.0,10,45000.0,10,60000.0,10,5000.0,10,1.7,10,0,10,13.1,10,17.3,10,14.5,10,20.0,10,12.2,10,16.1,10,10.6,10,1,10,1,10,2,10,1.6,10,1727.0,10
130,Sillian,Tirol,46.74644,12.42358,2025-07-11,,10,,10,,10,,10,,10,,10,,10,0,10,0,10,1553.0,10,9.6,10,10.6,10,11.3,10,10.5,10,24.0,10,8.0,10,4.0,10,,10,,10,,10,10.8,10,0,10,,10,,10,895.8,10,893.4,10,894.6,10,894.6,10,,10,,10,,10,,10,,10,,10,65.0,10,54.0,10,71.0,10,63.0,10,0.1,10,-1.0,10,0.1,10,,10,,10,,10,,10,,10,,10,,10,,10,,10,,10,2.4,10,,10,12.8,10,17.3,10,13.9,10,18.5,10,10.5,10,14.5,10,9.6,10,1,10,2,10,1,10,1.6,10,1435.0,10
131,Salzburg Flughafen,Salzburg,47.78944,13.00861,2025-07-11,,10,,10,,10,,10,,10,,10,,10,0,10,0,10,,10,13.8,10,15.3,10,15.3,10,14.8,10,12.0,10,12.0,10,12.0,10,,10,,10,,10,8.2,10,1,10,,10,,10,965.7,10,965.2,10,964.4,10,965.1,10,,10,,10,,10,,10,,10,,10,84.0,10,75.0,10,76.0,10,78.0,10,7.3,10,1.6,10,4.9,10,,10,,10,,10,,10,,10,,10,,10,,10,,10,,10,2.8,10,,10,14.4,10,17.9,10,17.6,10,19.8,10,13.3,10,16.6,10,12.9,10,3,10,3,10,2,10,3.9,10,,10
132,Bad Ischl,Oberösterreich,47.70619,13.64714,2025-07-11,1.0,10,1.0,10,1.0,10,10.0,10,8.0,10,3.0,10,70.0,10,0,10,0,10,1211.0,10,14.8,10,16.5,10,15.3,10,15.5,10,12.0,10,12.0,10,12.0,10,2,10,1,10,1,10,4.2,10,0,10,0,10,0,10,958.7,10,958.5,10,957.0,10,958.1,10,0,10,0,10,,10,,10,,10,,10,98.0,10,86.0,10,86.0,10,90.0,10,4.5,10,6.6,10,4.5,10,1,10,1,10,1,10,,10,-1.0,10,0,10,-1.0,10,10000.0,10,25000.0,10,20000.0,10,3.3,10,0,10,13.2,10,16.9,10,15.7,10,20.1,10,11.8,10,16.0,10,11.5,10,1,10,1,10,1,10,1.1,10,132.0,10
133,Fraxern,Vorarlberg,47.31417,9.67444,2025-07-11,1.0,10,2.0,10,2.0,10,1.0,10,7.0,10,8.0,10,53.0,10,0,10,0,10,2207.0,10,10.8,10,11.6,10,12.0,10,11.5,10,12.0,10,4.0,10,28.0,10,0,10,0,10,0,10,5.7,10,0,10,0,10,0,10,926.0,10,925.1,10,923.8,10,925.0,10,0,10,0,10,,10,,10,,10,,10,68.0,10,46.0,10,50.0,10,55.0,10,-1.0,10,-1.0,10,-1.0,10,0,10,0,10,0,10,,10,-1.0,10,0,10,-1.0,10,35000.0,10,35000.0,10,30000.0,10,7.9,10,0,10,14.0,10,21.3,10,20.4,10,23.5,10,11.7,10,17.6,10,8.6,10,1,10,1,10,1,10,1.1,10,1220.0,10
134,Gänserndorf Stadt,Niederösterreich,48.33778,16.71361,2025-07-11,,10,,10,,10,,10,,10,,10,,10,0,10,0,10,2168.0,10,13.8,10,12.7,10,13.8,10,13.4,10,28.0,10,24.0,10,24.0,10,,10,,10,,10,10.2,10,0,10,,10,,10,996.7,10,994.9,10,994.7,10,995.4,10,,10,,10,,10,,10,,10,,10,73.0,10,48.0,10,63.0,10,61.0,10,-1.0,10,-1.0,10,-1.0,10,,10,,10,,10,,10,,10,,10,,10,,10,,10,,10,6.6,10,,10,16.6,10,22.0,10,19.0,10,24.5,10,13.5,10,19.0,10,12.2,10,3,10,3,10,3,10,4.6,10,1332.0,10
136,Umhausen,Tirol,47.13917,10.92889,2025-07-11,1.0,10,1.0,10,1.0,10,8.0,10,6.0,10,3.0,10,57.0,10,0,10,0,10,1546.0,10,10.6,10,10.1,10,11.0,10,10.6,10,12.0,10,28.0,10,28.0,10,0,10,0,10,0,10,10.6,10,0,10,0,10,0,10,901.8,10,899.6,10,899.7,10,900.4,10,0,10,0,10,,10,,10,,10,,10,73.0,10,45.0,10,62.0,10,60.0,10,-1.0,10,-1.0,10,-1.0,10,0,10,0,10,0,10,,10,-1.0,10,0,10,-1.0,10,40000.0,10,40000.0,10,40000.0,10,2.4,10,1,10,12.5,10,19.4,10,15.7,10,22.4,10,10.1,10,16.3,10,5.2,10,1,10,2,10,2,10,2.1,10,1642.0,10
137,Döllach,Kärnten,46.95806,12.9025,2025-07-11,,10,,10,,10,,10,,10,,10,,10,0,10,0,10,1220.0,10,11.2,10,11.1,10,11.3,10,11.2,10,4.0,10,4.0,10,32.0,10,,10,,10,,10,7.9,10,0,10,,10,,10,897.4,10,896.4,10,895.6,10,896.5,10,,10,,10,,10,,10,,10,,10,88.0,10,68.0,10,81.0,10,79.0,10,0.4,10,0.6,10,0.3,10,,10,,10,,10,,10,,10,,10,,10,,10,,10,,10,2.5,10,,10,10.5,10,14.4,10,11.9,10,17.2,10,9.9,10,13.6,10,9.5,10,1,10,1,10,1,10,1.1,10,1615.0,10
138,Prutz,Tirol,47.06861,10.66472,2025-07-11,1.0,10,1.0,10,1.0,10,7.0,10,7.0,10,4.0,10,60.0,10,0,10,0,10,1523.0,10,10.4,10,10.5,10,10.0,10,10.3,10,4.0,10,4.0,10,4.0,10,0,10,0,10,0,10,8.0,10,0,10,0,10,0,10,,10,,10,,10,,10,0,10,0,10,,10,,10,,10,,10,82.0,10,44.0,10,47.0,10,58.0,10,-1.0,10,-1.0,10,-1.0,10,0,10,0,10,0,10,,10,-1.0,10,0,10,-1.0,10,15000.0,10,20000.0,10,16000.0,10,2.4,10,0,10,10.5,10,20.4,10,18.6,10,23.1,10,8.7,10,15.9,10,,10,1,10,2,10,2,10,2.1,10,1806.0,10
139,Steinach am Brenner,Tirol,47.09833,11.46611,2025-07-11,,10,,10,,10,,10,,10,,10,,10,0,10,0,10,1367.0,10,10.4,10,9.9,10,11.7,10,10.7,10,12.0,10,32.0,10,28.0,10,,10,,10,,10,8.4,10,0,10,,10,,10,902.2,10,899.9,10,900.5,10,900.9,10,,10,,10,,10,,10,,10,,10,75.0,10,44.0,10,74.0,10,64.0,10,0.2,10,-1.0,10,0.0,10,,10,,10,,10,,10,,10,,10,,10,,10,,10,,10,1.6,10,,10,11.8,10,19.4,10,13.9,10,19.6,10,8.4,10,14.0,10,7.1,10,1,10,2,10,1,10,1.6,10,1623.0,10
140,Bad Tatzmannsdorf,Burgenland,47.328056,16.228056,2025-07-11,0.0,10,0.0,10,0.0,10,4.0,10,7.0,10,7.0,10,60.0,10,0,10,0,10,,10,12.7,10,13.8,10,16.1,10,14.2,10,4.0,10,16.0,10,20.0,10,0,10,1,10,1,10,7.8,10,0,10,0,10,0,10,,10,,10,,10,,10,0,10,0,10,,10,,10,,10,,10,62.0,10,56.0,10,94.0,10,71.0,10,7.0,10,-1.0,10,7.0,10,,10,0,10,,10,,10,,10,0,10,,10,45000.0,10,45000.0,10,5000.0,10,4.7,10,0,10,17.9,10,20.9,10,15.1,10,22.4,10,11.9,10,17.2,10,9.5,10,1,10,1,10,1,10,1.1,10,1454.0,10
141,Ried im Innkreis,Oberösterreich,48.21722,13.475,2025-07-11,,10,,10,,10,,10,,10,,10,,10,0,10,0,10,1576.0,10,15.3,10,14.9,10,14.5,10,14.9,10,0.0,10,20.0,10,24.0,10,,10,,10,,10,6.6,10,0,10,,10,,10,967.4,10,966.6,10,965.5,10,966.5,10,,10,,10,,10,,10,,10,,10,94.0,10,71.0,10,65.0,10,77.0,10,2.8,10,2.5,10,1.6,10,,10,,10,,10,,10,,10,,10,,10,,10,,10,,10,4.5,10,,10,14.3,10,18.3,10,19.3,10,21.3,10,12.9,10,17.1,10,12.1,10,0,10,2,10,1,10,1.2,10,1139.0,10
142,Kufstein,Tirol,47.57528,12.16278,2025-07-11,2.0,10,0.0,10,2.0,10,10.0,10,8.0,10,9.0,10,90.0,10,0,10,0,10,1147.0,10,14.8,10,13.8,10,14.4,10,14.3,10,20.0,10,32.0,10,32.0,10,1,10,0,10,2,10,5.9,10,1,10,0,10,0,10,961.1,10,959.1,10,959.8,10,960.0,10,0,10,0,10,,10,,10,,10,,10,91.0,10,59.0,10,81.0,10,77.0,10,7.9,10,0.7,10,7.1,10,1,10,1,10,1,10,,10,-1.0,10,0,10,-1.0,10,10000.0,10,10000.0,10,15000.0,10,2.1,10,0,10,14.3,10,20.1,10,15.7,10,21.0,10,13.8,10,17.4,10,12.8,10,1,10,1,10,2,10,1.6,10,1819.0,10
144,Micheldorf,Oberösterreich,47.88388,14.117222,2025-07-11,,10,,10,,10,,10,,10,,10,,10,0,10,0,10,1486.0,10,13.0,10,12.4,10,14.8,10,13.4,10,12.0,10,28.0,10,24.0,10,,10,,10,,10,11.6,10,1,10,,10,,10,965.7,10,965.2,10,964.3,10,965.1,10,,10,,10,,10,,10,,10,,10,83.0,10,61.0,10,73.0,10,72.0,10,-1.0,10,1.2,10,-1.0,10,,10,,10,,10,,10,,10,,10,,10,,10,,10,,10,3.3,10,,10,13.7,10,17.8,10,17.7,10,21.0,10,13.0,10,17.0,10,11.9,10,3,10,3,10,2,10,3.9,10,1318.0,10
145,Salzburg Freisaal,Salzburg,47.79111,13.05417,2025-07-11,2.0,10,1.0,10,,10,10.0,10,3.0,10,,10,,10,0,10,0,10,1137.0,10,13.6,10,15.0,10,14.4,10,14.3,10,16.0,10,12.0,10,12.0,10,1,10,1,10,,10,9.0,10,1,10,0,10,0,10,968.7,10,968.1,10,966.9,10,967.9,10,0,10,0,10,,10,,10,,10,,10,81.0,10,72.0,10,71.0,10,75.0,10,5.5,10,0.2,10,4.8,10,,10,1,10,,10,,10,-1.0,10,0,10,-1.0,10,25000.0,10,25000.0,10,,10,2.4,10,0,10,14.8,10,18.2,10,17.8,10,20.1,10,13.5,10,16.8,10,12.8,10,2,10,2,10,1,10,2.1,10,1917.0,10
146,Holzgau,Tirol,47.25758,10.33867,2025-07-11,,10,,10,,10,,10,,10,,10,,10,0,10,0,10,1285.0,10,10.7,10,10.2,10,12.9,10,11.3,10,24.0,10,8.0,10,8.0,10,,10,,10,,10,7.5,10,0,10,,10,,10,895.9,10,894.5,10,893.6,10,894.7,10,,10,,10,,10,,10,,10,,10,82.0,10,52.0,10,70.0,10,68.0,10,-1.0,10,-1.0,10,-1.0,10,,10,,10,,10,,10,,10,,10,,10,,10,,10,,10,2.5,10,,10,10.9,10,17.3,10,16.2,10,18.8,10,6.7,10,12.8,10,6.5,10,1,10,1,10,1,10,1.1,10,1247.0,10
147,Gröbming,Steiermark,47.44678,13.90422,2025-07-11,,10,,10,,10,,10,,10,,10,,10,0,10,0,10,1091.0,10,12.6,10,13.0,10,13.8,10,13.1,10,0.0,10,24.0,10,24.0,10,,10,,10,,10,6.1,10,0,10,,10,,10,930.0,10,930.0,10,928.5,10,929.5,10,,10,,10,,10,,10,,10,,10,92.0,10,80.0,10,84.0,10,85.0,10,12.0,10,13.6,10,12.0,10,,10,,10,,10,,10,,10,,10,,10,,10,,10,,10,1.9,10,,10,11.7,10,14.3,10,14.4,10,16.2,10,10.9,10,13.6,10,10.5,10,0,10,1,10,1,10,0.7,10,834.0,10
148,Weitra,Niederösterreich,48.70222,14.89861,2025-07-11,1.0,10,2.0,10,1.0,10,9.0,10,7.0,10,8.0,10,80.0,10,0,10,0,10,1767.0,10,12.9,10,10.8,10,12.6,10,12.1,10,24.0,10,24.0,10,20.0,10,1,10,0,10,1,10,8.8,10,0,10,0,10,0,10,951.1,10,949.7,10,949.7,10,950.2,10,0,10,0,10,,10,,10,,10,,10,79.0,10,47.0,10,85.0,10,70.0,10,4.1,10,0.2,10,4.1,10,,10,,10,,10,,10,-1.0,10,0,10,-1.0,10,12000.0,10,30000.0,10,12000.0,10,3.8,10,0,10,14.4,10,19.8,10,12.9,10,21.5,10,10.4,10,16.0,10,9.0,10,1,10,2,10,2,10,2.1,10,1701.0,10
149,Mallnitz,Kärnten,46.99194,13.16667,2025-07-11,,10,,10,,10,,10,,10,,10,,10,0,10,0,10,1081.0,10,10.8,10,9.4,10,10.8,10,10.3,10,24.0,10,24.0,10,28.0,10,,10,,10,,10,10.6,10,0,10,,10,,10,884.1,10,883.7,10,882.3,10,883.4,10,,10,,10,,10,,10,,10,,10,92.0,10,71.0,10,81.0,10,81.0,10,4.3,10,3.4,10,3.9,10,,10,,10,,10,,10,,10,,10,,10,,10,,10,,10,2.0,10,,10,9.4,10,11.2,10,11.2,10,16.2,10,9.2,10,12.7,10,9.6,10,1,10,2,10,2,10,2.1,10,1347.0,10
150,Spittal an der Drau,Kärnten,46.7905,13.48725,2025-07-11,,10,,10,,10,,10,,10,,10,,10,0,10,0,10,994.0,10,12.8,10,13.1,10,13.9,10,13.3,10,28.0,10,20.0,10,12.0,10,,10,,10,,10,5.3,10,0,10,,10,,10,955.5,10,953.8,10,953.5,10,954.3,10,,10,,10,,10,,10,,10,,10,80.0,10,63.0,10,74.0,10,72.0,10,0.6,10,-1.0,10,0.6,10,,10,,10,,10,,10,,10,,10,,10,,10,,10,,10,3.1,10,,10,14.1,10,18.1,10,16.6,10,19.5,10,11.9,10,15.7,10,10.3,10,1,10,1,10,1,10,1.1,10,1406.0,10
151,Achenkirch,Tirol,47.49944,11.70667,2025-07-11,,10,,10,,10,,10,,10,,10,,10,0,10,0,10,1466.0,10,12.7,10,13.6,10,13.4,10,13.2,10,12.0,10,32.0,10,8.0,10,,10,,10,,10,12.1,10,1,10,,10,,10,912.5,10,911.4,10,911.4,10,911.8,10,,10,,10,,10,,10,,10,,10,87.0,10,72.0,10,80.0,10,80.0,10,5.4,10,-1.0,10,2.0,10,,10,,10,,10,,10,,10,,10,,10,,10,,10,,10,3.4,10,,10,12.6,10,16.6,10,14.7,10,19.0,10,10.4,10,14.7,10,10.0,10,1,10,2,10,1,10,1.6,10,1439.0,10
152,Laa an der Thaya Kläranlage,Niederösterreich,48.73139,16.38972,2025-07-11,,10,,10,,10,,10,,10,,10,,10,0,10,0,10,2242.0,10,15.2,10,11.0,10,13.2,10,13.1,10,20.0,10,24.0,10,20.0,10,,10,,10,,10,9.3,10,0,10,,10,,10,994.6,10,992.4,10,992.4,10,993.1,10,,10,,10,,10,,10,,10,,10,85.0,10,37.0,10,55.0,10,59.0,10,-1.0,10,0.2,10,-1.0,10,,10,,10,,10,,10,,10,,10,,10,,10,,10,,10,6.9,10,,10,15.8,10,24.0,10,20.5,10,24.7,10,13.8,10,19.3,10,12.5,10,1,10,2,10,2,10,2.1,10,1532.0,10
153,Präbichl,Steiermark,47.52158,14.95416,2025-07-11,,10,,10,,10,,10,,10,,10,,10,0,10,0,10,1525.0,10,10.7,10,10.8,10,11.1,10,10.9,10,28.0,10,28.0,10,28.0,10,,10,,10,,10,8.6,10,0,10,,10,,10,881.0,10,880.8,10,880.5,10,880.8,10,,10,,10,,10,,10,,10,,10,95.0,10,74.0,10,89.0,10,86.0,10,3.3,10,13.4,10,3.3,10,,10,,10,,10,,10,,10,,10,,10,,10,,10,,10,4.4,10,,10,8.8,10,12.7,10,10.3,10,13.4,10,7.6,10,10.5,10,,10,2,10,2,10,2,10,2.7,10,931.0,10
154,Fürstenfeld,Steiermark,47.03083,16.08083,2025-07-11,1.0,10,2.0,10,1.0,10,4.0,10,6.0,10,7.0,10,57.0,10,0,10,0,10,1717.0,10,13.4,10,14.0,10,16.0,10,14.5,10,16.0,10,8.0,10,24.0,10,1,10,1,10,1,10,11.3,10,1,10,0,10,0,10,984.4,10,982.6,10,983.5,10,983.5,10,0,10,0,10,,10,,10,,10,,10,61.0,10,51.0,10,82.0,10,65.0,10,1.1,10,-1.0,10,1.1,10,1,10,0,10,1,10,,10,-1.0,10,0,10,-1.0,10,15000.0,10,15000.0,10,15000.0,10,4.9,10,0,10,19.0,10,22.6,10,17.1,10,23.0,10,13.2,10,18.1,10,10.9,10,1,10,2,10,1,10,1.6,10,1439.0,10
155,Oberndorf an der Melk,Niederösterreich,48.06239,15.21381,2025-07-11,1.0,10,1.0,10,1.0,10,9.0,10,9.0,10,7.0,10,83.0,10,0,10,0,10,1515.0,10,13.6,10,13.9,10,14.3,10,13.9,10,20.0,10,24.0,10,20.0,10,1,10,1,10,1,10,7.9,10,1,10,0,10,0,10,983.1,10,981.3,10,981.4,10,981.9,10,0,10,0,10,,10,,10,,10,,10,84.0,10,62.0,10,71.0,10,72.0,10,4.5,10,0.0,10,0.0,10,1,10,1,10,1,10,,10,-1.0,10,0,10,-1.0,10,30000.0,10,20000.0,10,30000.0,10,4.3,10,0,10,14.2,10,19.4,10,17.7,10,21.5,10,12.1,10,16.8,10,10.4,10,2,10,2,10,1,10,2.1,10,1402.0,10
156,St.Johann im Pongau,Salzburg,47.31981,13.18672,2025-07-11,2.0,10,2.0,10,1.0,10,9.0,10,8.0,10,9.0,10,,10,0,10,0,10,,10,13.8,10,14.2,10,14.0,10,14.0,10,16.0,10,0.0,10,16.0,10,1,10,2,10,1,10,6.1,10,0,10,0,10,0,10,944.0,10,943.7,10,942.4,10,943.4,10,0,10,0,10,,10,,10,,10,,10,96.0,10,89.0,10,88.0,10,91.0,10,6.8,10,0.9,10,6.6,10,1,10,1,10,1,10,,10,-1.0,10,0,10,-1.0,10,15000.0,10,15000.0,10,20000.0,10,,10,0,10,12.4,10,14.0,10,14.0,10,17.6,10,11.6,10,14.6,10,11.2,10,1,10,0,10,1,10,0.7,10,1232.0,10
157,Kollerschlag,Oberösterreich,48.60278,13.83917,2025-07-11,0.0,10,0.0,10,0.0,10,4.0,10,4.0,10,4.0,10,40.0,10,0,10,0,10,1766.0,10,13.5,10,11.2,10,14.0,10,12.9,10,0.0,10,24.0,10,8.0,10,1,10,1,10,1,10,10.0,10,0,10,0,10,0,10,935.4,10,934.5,10,934.2,10,934.7,10,0,10,0,10,,10,,10,,10,,10,91.0,10,56.0,10,89.0,10,79.0,10,4.0,10,6.2,10,4.0,10,0,10,0,10,0,10,,10,-1.0,10,0,10,-1.0,10,5000.0,10,8000.0,10,6000.0,10,3.7,10,0,10,12.9,10,17.6,10,13.8,10,19.1,10,8.7,10,13.9,10,7.0,10,0,10,3,10,1,10,1.9,10,1117.0,10
158,Hohenau,Niederösterreich,48.605835,16.913055,2025-07-11,,10,,10,,10,,10,,10,,10,,10,0,10,0,10,2441.0,10,13.6,10,10.7,10,12.5,10,12.3,10,28.0,10,32.0,10,24.0,10,,10,,10,,10,8.9,10,0,10,,10,,10,997.9,10,996.0,10,995.8,10,996.6,10,,10,,10,,10,,10,,10,,10,68.0,10,36.0,10,49.0,10,51.0,10,-1.0,10,-1.0,10,-1.0,10,,10,,10,,10,,10,,10,,10,,10,,10,,10,,10,8.9,10,,10,17.5,10,24.0,10,21.4,10,25.0,10,12.2,10,18.6,10,10.3,10,2,10,2,10,2,10,2.7,10,1627.0,10
159,Reichersberg,Oberösterreich,48.33111,13.37611,2025-07-11,2.0,10,1.0,10,1.0,10,10.0,10,5.0,10,7.0,10,73.0,10,0,10,0,10,1715.0,10,15.6,10,14.7,10,16.9,10,15.7,10,8.0,10,20.0,10,24.0,10,2,10,1,10,1,10,8.8,10,0,10,0,10,0,10,976.0,10,975.3,10,974.1,10,975.1,10,0,10,0,10,,10,,10,,10,,10,96.0,10,66.0,10,79.0,10,80.0,10,2.4,10,3.4,10,2.3,10,1,10,1,10,1,10,,10,-1.0,10,0,10,-1.0,10,1500.0,10,8000.0,10,6000.0,10,4.8,10,0,10,14.3,10,19.3,10,18.6,10,22.6,10,12.3,10,17.5,10,10.6,10,1,10,3,10,1,10,2.2,10,1120.0,10
160,Waizenkirchen,Oberösterreich,48.32656,13.86458,2025-07-11,,10,,10,,10,,10,,10,,10,,10,0,10,0,10,2033.0,10,,10,,10,,10,,10,20.0,10,20.0,10,12.0,10,,10,,10,,10,10.9,10,1,10,,10,,10,970.4,10,969.3,10,968.8,10,969.5,10,,10,,10,,10,,10,,10,,10,,10,,10,,10,,10,,10,,10,,10,,10,,10,,10,,10,,10,,10,,10,,10,,10,,10,4.8,10,,10,,10,,10,,10,,10,,10,,10,,10,1,10,4,10,1,10,2.6,10,1313.0,10
161,Reichenau am Mühlkreis,Oberösterreich,48.45917,14.34556,2025-07-11,,10,,10,,10,,10,,10,,10,,10,0,10,0,10,1292.0,10,12.7,10,11.9,10,12.3,10,12.3,10,28.0,10,0.0,10,24.0,10,,10,,10,,10,11.1,10,1,10,,10,,10,937.7,10,937.3,10,936.7,10,937.2,10,,10,,10,,10,,10,,10,,10,91.0,10,69.0,10,85.0,10,82.0,10,1.1,10,1.8,10,1.1,10,,10,,10,,10,,10,,10,,10,,10,,10,,10,,10,2.6,10,,10,11.9,10,15.2,10,12.5,10,18.3,10,8.2,10,13.3,10,7.1,10,1,10,0,10,2,10,1.2,10,1717.0,10
162,Aspach,Oberösterreich,48.18306,13.3,2025-07-11,,10,,10,,10,,10,,10,,10,,10,0,10,0,10,1776.0,10,15.1,10,14.7,10,16.2,10,15.3,10,20.0,10,24.0,10,20.0,10,,10,,10,,10,8.1,10,0,10,,10,,10,,10,,10,,10,,10,,10,,10,,10,,10,,10,,10,91.0,10,66.0,10,75.0,10,77.0,10,2.3,10,1.5,10,2.3,10,,10,,10,,10,,10,,10,,10,,10,,10,,10,,10,5.0,10,,10,14.6,10,19.3,10,18.8,10,21.8,10,12.9,10,17.4,10,12.4,10,1,10,2,10,1,10,1.6,10,1127.0,10
163,Mondsee,Oberösterreich,47.85083,13.34722,2025-07-11,,10,,10,,10,,10,,10,,10,,10,0,10,0,10,1253.0,10,14.5,10,15.1,10,14.7,10,14.8,10,16.0,10,12.0,10,28.0,10,,10,,10,,10,8.1,10,0,10,,10,,10,961.4,10,961.1,10,960.0,10,960.8,10,,10,,10,,10,,10,,10,,10,87.0,10,70.0,10,72.0,10,76.0,10,2.0,10,0.8,10,1.8,10,,10,,10,,10,,10,,10,,10,,10,,10,,10,,10,3.5,10,,10,14.7,10,18.7,10,17.9,10,21.5,10,13.8,10,17.7,10,,10,1,10,2,10,1,10,1.6,10,2.0,10
164,Berndorf,Niederösterreich,47.93917,16.10111,2025-07-11,2.0,10,2.0,10,2.0,10,10.0,10,8.0,10,3.0,10,70.0,10,0,10,0,10,1883.0,10,13.1,10,12.8,10,12.7,10,12.9,10,28.0,10,32.0,10,20.0,10,1,10,1,10,1,10,7.5,10,0,10,0,10,0,10,977.4,10,976.0,10,976.0,10,976.5,10,0,10,0,10,,10,,10,,10,,10,71.0,10,47.0,10,68.0,10,62.0,10,0.1,10,0.1,10,0.1,10,1,10,1,10,1,10,,10,-1.0,10,0,10,-1.0,10,4000.0,10,6000.0,10,6000.0,10,4.5,10,0,10,16.3,10,22.5,10,16.5,10,23.4,10,13.6,10,18.5,10,12.0,10,1,10,1,10,1,10,1.1,10,1433.0,10
165,Abtenau,Salzburg,47.56667,13.34333,2025-07-11,2.0,10,2.0,10,2.0,10,9.0,10,10.0,10,7.0,10,87.0,10,0,10,0,10,1253.0,10,13.3,10,13.2,10,14.2,10,13.6,10,20.0,10,24.0,10,16.0,10,2,10,2,10,2,10,5.7,10,0,10,0,10,0,10,936.7,10,936.4,10,934.9,10,936.0,10,0,10,0,10,,10,,10,,10,,10,94.0,10,77.0,10,81.0,10,84.0,10,7.6,10,2.5,10,5.1,10,1,10,1,10,1,10,,10,-1.0,10,0,10,-1.0,10,5000.0,10,5000.0,10,15000.0,10,3.2,10,0,10,12.2,10,15.1,10,15.5,10,18.5,10,11.6,10,15.1,10,11.7,10,1,10,1,10,1,10,1.1,10,1136.0,10
166,Hall bei Admont,Steiermark,47.59444,14.49083,2025-07-11,1.0,10,2.0,10,1.0,10,10.0,10,10.0,10,10.0,10,100.0,10,0,10,0,10,1365.0,10,13.2,10,12.0,10,13.4,10,12.9,10,16.0,10,24.0,10,32.0,10,1,10,1,10,1,10,11.7,10,0,10,0,10,0,10,944.3,10,943.2,10,942.7,10,943.4,10,0,10,0,10,,10,,10,,10,,10,93.0,10,71.0,10,78.0,10,81.0,10,0.6,10,2.9,10,0.6,10,,10,,10,,10,,10,-1.0,10,0,10,-1.0,10,4000.0,10,7000.0,10,5000.0,10,1.9,10,0,10,12.2,10,14.9,10,15.2,10,18.3,10,11.2,10,14.8,10,,10,1,10,3,10,1,10,2.2,10,1317.0,10
167,Mürzzuschlag,Steiermark,47.60222,15.67278,2025-07-11,1.0,10,1.0,10,1.0,10,10.0,10,10.0,10,1.0,10,70.0,10,0,10,0,10,,10,11.6,10,12.3,10,12.1,10,12.0,10,20.0,10,28.0,10,28.0,10,1,10,1,10,2,10,11.8,10,0,10,0,10,0,10,935.9,10,934.3,10,935.2,10,935.1,10,0,10,0,10,,10,,10,,10,,10,97.0,10,58.0,10,87.0,10,81.0,10,3.0,10,0.1,10,3.0,10,1,10,0,10,1,10,,10,-1.0,10,0,10,-1.0,10,2000.0,10,18000.0,10,18000.0,10,3.4,10,0,10,9.6,10,18.5,10,11.9,10,20.1,10,9.2,10,14.7,10,,10,1,10,2,10,1,10,1.6,10,1523.0,10
169,Pottschach,Niederösterreich,47.70083,16.00806,2025-07-11,,10,,10,,10,,10,,10,,10,,10,0,10,0,10,1596.0,10,13.3,10,11.5,10,13.6,10,12.8,10,24.0,10,32.0,10,16.0,10,,10,,10,,10,9.8,10,0,10,,10,,10,967.8,10,966.5,10,966.7,10,967.0,10,,10,,10,,10,,10,,10,,10,74.0,10,46.0,10,72.0,10,64.0,10,2.1,10,0.4,10,2.1,10,,10,,10,,10,,10,,10,,10,,10,,10,,10,,10,3.5,10,,10,15.8,10,21.1,10,16.6,10,22.8,10,12.3,10,17.6,10,,10,1,10,2,10,1,10,1.6,10,1308.0,10
170,Aspang,Niederösterreich,47.575,16.10139,2025-07-11,,10,,10,,10,,10,,10,,10,,10,0,10,0,10,1514.0,10,14.1,10,13.9,10,14.7,10,14.2,10,0.0,10,32.0,10,20.0,10,,10,,10,,10,6.4,10,0,10,,10,,10,963.5,10,962.3,10,962.7,10,962.8,10,,10,,10,,10,,10,,10,,10,96.0,10,62.0,10,90.0,10,83.0,10,0.6,10,1.2,10,0.6,10,,10,,10,,10,,10,,10,,10,,10,,10,,10,,10,2.6,10,,10,12.7,10,19.4,10,14.4,10,21.3,10,9.6,10,15.5,10,8.2,10,0,10,1,10,1,10,0.7,10,1204.0,10
171,Dornbirn,Vorarlberg,47.4325,9.72556,2025-07-11,,10,,10,,10,0.0,10,,10,,10,,10,0,10,0,10,2514.0,10,12.3,10,12.1,10,14.0,10,12.8,10,8.0,10,28.0,10,4.0,10,0,10,,10,,10,5.0,10,0,10,0,10,0,10,970.7,10,968.9,10,967.1,10,968.9,10,0,10,0,10,,10,,10,,10,,10,65.0,10,41.0,10,54.0,10,53.0,10,-1.0,10,-1.0,10,-1.0,10,,10,,10,,10,,10,-1.0,10,0,10,-1.0,10,20000.0,10,,10,,10,9.4,10,0,10,16.6,10,23.8,10,21.7,10,25.3,10,11.3,10,18.3,10,7.2,10,1,10,1,10,1,10,1.1,10,1349.0,10
172,Schoppernau,Vorarlberg,47.31139,10.01778,2025-07-11,,10,,10,,10,,10,,10,,10,,10,0,10,0,10,2128.0,10,11.6,10,10.9,10,15.1,10,12.5,10,0.0,10,28.0,10,20.0,10,,10,,10,,10,7.2,10,0,10,,10,,10,923.3,10,921.9,10,921.0,10,922.1,10,,10,,10,,10,,10,,10,,10,84.0,10,45.0,10,72.0,10,67.0,10,-1.0,10,-1.0,10,-1.0,10,,10,,10,,10,,10,,10,,10,,10,,10,,10,,10,5.7,10,,10,11.8,10,20.6,10,18.3,10,22.2,10,7.1,10,14.7,10,4.6,10,0,10,2,10,1,10,1.2,10,1127.0,10
173,Schröcken,Vorarlberg,47.26167,10.08611,2025-07-11,,10,,10,,10,,10,,10,,10,,10,0,10,0,10,1769.0,10,10.3,10,10.8,10,10.7,10,10.6,10,4.0,10,24.0,10,24.0,10,,10,,10,,10,6.7,10,0,10,,10,,10,879.6,10,878.9,10,878.1,10,878.9,10,,10,,10,,10,,10,,10,,10,70.0,10,56.0,10,60.0,10,62.0,10,-1.0,10,-1.0,10,-1.0,10,,10,,10,,10,,10,,10,,10,,10,,10,,10,,10,3.5,10,,10,12.8,10,16.9,10,15.7,10,19.1,10,8.3,10,13.7,10,,10,1,10,1,10,1,10,1.1,10,1223.0,10
174,Mittelberg,Vorarlberg,47.32333,10.1525,2025-07-11,,10,,10,,10,,10,,10,,10,,10,0,10,0,10,1654.0,10,11.1,10,9.7,10,10.7,10,10.5,10,20.0,10,20.0,10,0.0,10,,10,,10,,10,7.0,10,0,10,,10,,10,,10,,10,,10,,10,,10,,10,,10,,10,,10,,10,82.0,10,50.0,10,58.0,10,63.0,10,-1.0,10,-1.0,10,-1.0,10,,10,,10,,10,,10,,10,,10,,10,,10,,10,,10,2.3,10,,10,11.5,10,17.0,10,16.3,10,18.9,10,6.6,10,12.8,10,,10,1,10,2,10,0,10,1.2,10,1313.0,10
175,Innsbruck Flughafen,Tirol,47.25999,11.35667,2025-07-11,,10,,10,,10,,10,,10,,10,,10,0,10,0,10,1447.0,10,11.9,10,12.6,10,12.8,10,12.4,10,24.0,10,4.0,10,4.0,10,,10,,10,,10,13.1,10,0,10,,10,,10,951.1,10,948.2,10,949.1,10,949.5,10,,10,,10,,10,,10,,10,,10,76.0,10,50.0,10,66.0,10,64.0,10,1.0,10,-1.0,10,0.1,10,,10,,10,,10,,10,,10,,10,,10,,10,,10,,10,2.5,10,,10,13.7,10,21.2,10,17.1,10,22.0,10,11.3,10,16.7,10,8.7,10,1,10,3,10,1,10,2.2,10,1543.0,10
176,Hahnenkamm-Ehrenbachhöhe,Tirol,47.41831,12.35928,2025-07-11,,10,,10,,10,,10,,10,,10,,10,0,10,0,10,1068.0,10,8.3,10,9.8,10,8.3,10,8.8,10,24.0,10,28.0,10,24.0,10,,10,,10,,10,12.9,10,1,10,,10,,10,825.8,10,825.4,10,825.1,10,825.4,10,,10,,10,,10,,10,,10,,10,86.0,10,83.0,10,76.0,10,82.0,10,,10,,10,,10,,10,,10,,10,,10,,10,,10,,10,,10,,10,,10,2.0,10,,10,6.5,10,9.4,10,8.3,10,10.4,10,5.2,10,7.8,10,,10,2,10,1,10,2,10,2.1,10,1438.0,10
178,Hochfilzen,Tirol,47.47028,12.62111,2025-07-11,,10,,10,,10,,10,,10,,10,,10,0,10,0,10,1058.0,10,12.4,10,13.0,10,13.4,10,12.9,10,8.0,10,12.0,10,8.0,10,,10,,10,,10,7.2,10,0,10,,10,,10,909.1,10,908.0,10,907.7,10,908.3,10,,10,,10,,10,,10,,10,,10,95.0,10,71.0,10,89.0,10,85.0,10,3.2,10,4.3,10,2.2,10,,10,,10,,10,,10,,10,,10,,10,,10,,10,,10,1.2,10,,10,11.0,10,16.1,10,13.1,10,16.3,10,10.5,10,13.4,10,,10,1,10,1,10,1,10,1.1,10,1454.0,10
179,Ramsau am Dachstein,Steiermark,47.42514,13.63428,2025-07-11,1.0,10,1.0,10,2.0,10,9.0,10,6.0,10,10.0,10,83.0,10,0,10,0,10,1125.0,10,10.8,10,11.7,10,11.4,10,11.3,10,28.0,10,20.0,10,20.0,10,2,10,2,10,1,10,7.9,10,0,10,0,10,0,10,882.5,10,882.5,10,881.4,10,882.1,10,0,10,0,10,,10,,10,,10,,10,89.0,10,86.0,10,86.0,10,87.0,10,6.4,10,10.2,10,5.9,10,1,10,1,10,1,10,,10,-1.0,10,0,10,-1.0,10,12000.0,10,12000.0,10,12000.0,10,2.0,10,0,10,9.8,10,11.6,10,11.2,10,13.9,10,8.6,10,11.3,10,8.2,10,2,10,1,10,2,10,2.1,10,2102.0,10
180,Rechnitz,Burgenland,47.30139,16.45417,2025-07-11,,10,,10,,10,,10,,10,,10,,10,0,10,0,10,,10,11.4,10,13.3,10,14.5,10,13.1,10,32.0,10,20.0,10,24.0,10,,10,,10,,10,11.1,10,1,10,,10,,10,980.1,10,979.0,10,979.2,10,979.4,10,,10,,10,,10,,10,,10,,10,51.0,10,51.0,10,76.0,10,59.0,10,1.0,10,-1.0,10,1.0,10,,10,,10,,10,,10,,10,,10,,10,,10,,10,,10,3.7,10,,10,19.3,10,21.8,10,16.8,10,22.9,10,15.0,10,19.0,10,14.7,10,2,10,2,10,1,10,2.1,10,19.0,10
181,Bludenz,Vorarlberg,47.14778,9.82944,2025-07-11,,10,,10,,10,,10,,10,,10,,10,0,10,0,10,2163.0,10,11.4,10,13.5,10,13.0,10,12.6,10,8.0,10,28.0,10,28.0,10,,10,,10,,10,7.3,10,0,10,,10,,10,952.4,10,950.5,10,949.2,10,950.7,10,,10,,10,,10,,10,,10,,10,71.0,10,45.0,10,48.0,10,55.0,10,0.1,10,-1.0,10,-1.0,10,,10,,10,,10,,10,,10,,10,,10,,10,,10,,10,6.1,10,,10,14.1,10,24.1,10,22.4,10,24.9,10,10.9,10,17.9,10,9.7,10,1,10,1,10,1,10,1.1,10,1311.0,10
182,Oberwölz,Steiermark,47.20206,14.28669,2025-07-11,,10,,10,,10,,10,,10,,10,,10,0,10,0,10,1226.0,10,12.1,10,12.1,10,13.3,10,12.5,10,0.0,10,0.0,10,0.0,10,,10,,10,,10,6.4,10,0,10,,10,,10,922.9,10,922.9,10,921.3,10,922.4,10,,10,,10,,10,,10,,10,,10,89.0,10,86.0,10,86.0,10,87.0,10,3.9,10,2.3,10,3.9,10,,10,,10,,10,,10,,10,,10,,10,,10,,10,,10,2.9,10,,10,11.6,10,12.1,10,13.5,10,17.6,10,8.6,10,13.1,10,,10,0,10,0,10,0,10,0.0,10,917.0,10
183,Güssing,Burgenland,47.0625,16.32186,2025-07-11,2.0,10,2.0,10,2.0,10,1.0,10,9.0,10,9.0,10,63.0,10,0,10,0,10,1688.0,10,12.9,10,12.1,10,14.2,10,13.1,10,20.0,10,20.0,10,28.0,10,1,10,1,10,1,10,9.0,10,1,10,0,10,0,10,990.8,10,989.5,10,989.9,10,990.1,10,0,10,0,10,,10,,10,,10,,10,65.0,10,42.0,10,71.0,10,59.0,10,1.6,10,-1.0,10,1.6,10,1,10,1,10,1,10,,10,-1.0,10,0,10,-1.0,10,80000.0,10,10000.0,10,80000.0,10,4.6,10,0,10,17.4,10,23.5,10,17.5,10,24.2,10,14.1,10,19.2,10,13.4,10,1,10,1,10,2,10,1.6,10,1506.0,10
184,Pitztaler Gletscher,Tirol,46.92706,10.87914,2025-07-11,2.0,10,2.0,10,2.0,10,4.0,10,10.0,10,9.0,10,77.0,10,0,10,0,10,1476.0,10,4.9,10,6.3,10,6.2,10,5.8,10,20.0,10,20.0,10,20.0,10,6,10,1,10,1,10,10.1,10,0,10,0,10,1,10,723.8,10,723.8,10,723.6,10,723.7,10,0,10,0,10,,10,,10,,10,,10,71.0,10,85.0,10,83.0,10,80.0,10,0.2,10,-1.0,10,0.0,10,,10,,10,,10,6.0,10,6.0,10,2,10,-1.0,10,38000.0,10,6000.0,10,12000.0,10,2.5,10,0,10,1.7,10,2.6,10,2.7,10,4.7,10,0.0,10,2.4,10,,10,1,10,1,10,2,10,1.6,10,1559.0,10
185,St.Jakob im Defereggental,Tirol,46.91694,12.35389,2025-07-11,,10,,10,,10,,10,,10,,10,,10,0,10,0,10,1481.0,10,10.0,10,10.2,10,10.5,10,10.2,10,24.0,10,8.0,10,4.0,10,,10,,10,,10,10.5,10,0,10,,10,,10,864.5,10,863.2,10,863.6,10,863.8,10,,10,,10,,10,,10,,10,,10,80.0,10,64.0,10,79.0,10,74.0,10,0.6,10,0.0,10,0.5,10,1,10,0,10,1,10,,10,-1.0,10,,10,-1.0,10,,10,,10,,10,2.5,10,,10,10.3,10,14.0,10,11.2,10,16.7,10,8.5,10,12.6,10,8.3,10,1,10,2,10,1,10,1.6,10,1535.0,10
187,Friesach,Kärnten,46.95861,14.40583,2025-07-11,1.0,10,2.0,10,1.0,10,7.0,10,10.0,10,4.0,10,70.0,10,0,10,0,10,1168.0,10,12.6,10,13.9,10,14.3,10,13.6,10,32.0,10,0.0,10,12.0,10,1,10,1,10,2,10,8.3,10,0,10,0,10,0,10,944.2,10,944.0,10,942.6,10,943.6,10,0,10,0,10,,10,,10,,10,,10,82.0,10,89.0,10,86.0,10,86.0,10,5.9,10,0.6,10,5.9,10,1,10,1,10,1,10,,10,-1.0,10,0,10,-1.0,10,30000.0,10,5000.0,10,40000.0,10,3.6,10,0,10,13.4,10,13.7,10,14.6,10,18.1,10,10.7,10,14.4,10,9.6,10,2,10,0,10,1,10,1.2,10,1221.0,10
188,Völkermarkt-Goldbrunnhof,Kärnten,46.670834,14.639167,2025-07-11,,10,,10,,10,,10,,10,,10,,10,0,10,0,10,1265.0,10,13.8,10,13.5,10,13.6,10,13.6,10,16.0,10,32.0,10,20.0,10,,10,,10,,10,6.4,10,0,10,,10,,10,963.5,10,962.9,10,962.0,10,962.8,10,,10,,10,,10,,10,,10,,10,84.0,10,77.0,10,74.0,10,78.0,10,2.8,10,0.0,10,2.8,10,,10,,10,,10,,10,,10,,10,,10,,10,,10,,10,3.9,10,,10,14.5,10,15.5,10,16.2,10,20.2,10,12.6,10,16.4,10,11.9,10,1,10,1,10,1,10,1.1,10,1052.0,10
189,Melk,Niederösterreich,48.20972,15.33139,2025-07-11,,10,,10,,10,,10,,10,,10,,10,0,10,0,10,1365.0,10,14.7,10,14.9,10,15.1,10,14.9,10,24.0,10,24.0,10,24.0,10,,10,,10,,10,11.0,10,0,10,,10,,10,981.9,10,981.0,10,980.3,10,981.1,10,,10,,10,,10,,10,,10,,10,95.0,10,90.0,10,88.0,10,91.0,10,,10,,10,,10,,10,,10,,10,,10,,10,,10,,10,,10,,10,,10,3.8,10,,10,13.5,10,14.6,10,15.1,10,19.0,10,13.0,10,16.0,10,11.7,10,2,10,2,10,3,10,3.3,10,1348.0,10
192,Wachtberg bei Steyr,Niederösterreich,48.0475,14.46111,2025-07-11,,10,,10,,10,,10,,10,,10,,10,0,10,0,10,1369.0,10,14.2,10,13.6,10,12.3,10,13.4,10,16.0,10,24.0,10,32.0,10,,10,,10,,10,10.2,10,1,10,,10,,10,972.5,10,972.2,10,971.5,10,972.1,10,,10,,10,,10,,10,,10,,10,92.0,10,87.0,10,65.0,10,81.0,10,0.6,10,5.2,10,0.6,10,,10,,10,,10,,10,,10,,10,,10,,10,,10,,10,3.3,10,,10,13.5,10,13.7,10,16.7,10,20.3,10,11.6,10,16.0,10,10.0,10,1,10,2,10,1,10,1.6,10,1321.0,10
193,Jauerling,Niederösterreich,48.33447,15.33911,2025-07-11,,10,,10,,10,,10,,10,,10,,10,0,10,0,10,1536.0,10,10.7,10,11.3,10,9.9,10,10.6,10,28.0,10,24.0,10,28.0,10,,10,,10,,10,10.0,10,0,10,,10,,10,908.0,10,907.4,10,906.9,10,907.4,10,,10,,10,,10,,10,,10,,10,81.0,10,89.0,10,73.0,10,81.0,10,5.6,10,-1.0,10,5.6,10,,10,,10,,10,,10,,10,,10,,10,,10,,10,,10,3.5,10,,10,11.1,10,10.5,10,11.5,10,16.0,10,10.4,10,13.2,10,9.3,10,3,10,2,10,4,10,4.7,10,1812.0,10
195,Mittersill,Salzburg,47.279167,12.495833,2025-07-11,,10,,10,,10,,10,,10,,10,,10,0,10,0,10,958.0,10,13.2,10,13.8,10,13.9,10,13.6,10,8.0,10,8.0,10,24.0,10,,10,,10,,10,13.3,10,1,10,,10,,10,,10,,10,,10,,10,,10,,10,,10,,10,,10,,10,97.0,10,81.0,10,87.0,10,88.0,10,10.5,10,4.0,10,8.7,10,,10,,10,,10,,10,,10,,10,,10,,10,,10,,10,1.1,10,,10,11.6,10,15.0,10,14.0,10,15.6,10,11.3,10,13.5,10,,10,1,10,2,10,2,10,2.1,10,1509.0,10
196,Patscherkofel,Tirol,47.20889,11.46222,2025-07-11,,10,,10,,10,,10,,10,,10,,10,0,10,0,10,1626.0,10,7.3,10,8.4,10,7.9,10,7.9,10,28.0,10,28.0,10,32.0,10,,10,,10,,10,13.3,10,0,10,,10,,10,778.5,10,778.0,10,777.8,10,778.1,10,,10,,10,,10,,10,,10,,10,82.0,10,71.0,10,82.0,10,78.0,10,0.2,10,-1.0,10,0.1,10,,10,,10,,10,,10,,10,,10,,10,,10,,10,,10,2.4,10,,10,5.4,10,9.5,10,6.5,10,10.3,10,3.3,10,6.8,10,,10,3,10,3,10,3,10,4.6,10,1652.0,10
197,Seibersdorf,Niederösterreich,47.975,16.504444,2025-07-11,,10,,10,,10,,10,,10,,10,,10,0,10,0,10,2244.0,10,14.0,10,11.3,10,12.7,10,12.7,10,28.0,10,28.0,10,20.0,10,,10,,10,,10,11.8,10,0,10,,10,,10,994.3,10,993.1,10,992.9,10,993.4,10,,10,,10,,10,,10,,10,,10,69.0,10,44.0,10,57.0,10,57.0,10,0.0,10,-1.0,10,0.0,10,,10,,10,,10,,10,,10,,10,,10,,10,,10,,10,8.1,10,,10,17.8,10,21.5,10,19.3,10,23.6,10,12.3,10,18.0,10,9.2,10,2,10,3,10,2,10,3.3,10,1340.0,10
198,Pörtschach,Kärnten,46.63083,14.16528,2025-07-11,,10,,10,,10,,10,,10,,10,,10,0,10,0,10,1236.0,10,13.2,10,11.5,10,14.2,10,13.0,10,32.0,10,8.0,10,4.0,10,,10,,10,,10,6.9,10,0,10,,10,,10,965.3,10,964.2,10,963.7,10,964.4,10,,10,,10,,10,,10,,10,,10,73.0,10,51.0,10,80.0,10,68.0,10,0.8,10,0.3,10,0.8,10,,10,,10,,10,,10,,10,,10,,10,,10,,10,,10,2.6,10,,10,16.0,10,19.4,10,15.7,10,20.7,10,13.4,10,17.1,10,12.4,10,1,10,2,10,1,10,1.6,10,1327.0,10
199,Horn Wasserwerk,Niederösterreich,48.674999,15.643888,2025-07-11,,10,,10,,10,,10,,10,,10,,10,0,10,0,10,1891.0,10,13.6,10,11.8,10,12.0,10,12.5,10,24.0,10,24.0,10,24.0,10,,10,,10,,10,11.9,10,0,10,,10,,10,981.0,10,979.1,10,979.6,10,979.9,10,,10,,10,,10,,10,,10,,10,83.0,10,48.0,10,63.0,10,65.0,10,0.1,10,0.1,10,0.1,10,,10,,10,,10,,10,,10,,10,,10,,10,,10,,10,4.5,10,,10,14.4,10,20.8,10,16.7,10,23.9,10,12.0,10,18.0,10,,10,2,10,2,10,4,10,4.0,10,1811.0,10
200,Gleisdorf,Steiermark,47.11556,15.70806,2025-07-11,,10,,10,,10,,10,,10,,10,,10,0,10,0,10,1670.0,10,12.8,10,14.2,10,15.4,10,14.1,10,28.0,10,0.0,10,24.0,10,,10,,10,,10,6.2,10,1,10,,10,,10,972.1,10,971.9,10,971.4,10,971.8,10,,10,,10,,10,,10,,10,,10,62.0,10,77.0,10,84.0,10,74.0,10,7.1,10,0.6,10,7.1,10,,10,,10,,10,,10,,10,,10,,10,,10,,10,,10,5.5,10,,10,18.1,10,16.3,10,16.2,10,22.9,10,13.3,10,18.1,10,,10,1,10,0,10,1,10,0.7,10,1246.0,10
202,Wörterberg,Burgenland,47.22619,16.09678,2025-07-11,1.0,10,1.0,10,1.0,10,2.0,10,6.0,10,4.0,10,40.0,10,0,10,0,10,1619.0,10,13.3,10,14.0,10,13.8,10,13.7,10,32.0,10,8.0,10,32.0,10,0,10,0,10,1,10,7.3,10,0,10,0,10,0,10,969.1,10,968.0,10,968.2,10,968.4,10,0,10,0,10,,10,,10,,10,,10,66.0,10,58.0,10,83.0,10,69.0,10,1.0,10,-1.0,10,1.0,10,1,10,0,10,1,10,,10,-1.0,10,0,10,-1.0,10,30000.0,10,30000.0,10,30000.0,10,4.4,10,0,10,17.6,10,20.6,10,14.6,10,22.3,10,14.1,10,18.2,10,11.0,10,1,10,1,10,1,10,1.1,10,1635.0,10
203,Fresach,Kärnten,46.71528,13.68528,2025-07-11,,10,,10,,10,,10,,10,,10,,10,0,10,0,10,1194.0,10,11.6,10,12.0,10,13.5,10,12.4,10,28.0,10,20.0,10,16.0,10,,10,,10,,10,6.4,10,0,10,,10,,10,,10,,10,,10,,10,,10,,10,,10,,10,,10,,10,68.0,10,56.0,10,79.0,10,68.0,10,2.2,10,-1.0,10,2.2,10,,10,,10,,10,,10,,10,,10,,10,,10,,10,,10,3.3,10,,10,15.0,10,18.7,10,15.1,10,19.3,10,10.3,10,14.8,10,8.9,10,1,10,1,10,1,10,1.1,10,1514.0,10
204,Kremsmünster,Oberösterreich,48.055,14.13111,2025-07-11,1.0,10,2.0,10,2.0,10,9.0,10,10.0,10,7.0,10,87.0,10,1,10,0,10,1342.0,10,14.7,10,15.2,10,16.1,10,15.3,10,20.0,10,24.0,10,4.0,10,1,10,2,10,1,10,17.5,10,1,10,0,10,0,10,972.0,10,971.4,10,970.7,10,971.4,10,0,10,0,10,,10,,10,,10,,10,92.0,10,91.0,10,80.0,10,88.0,10,6.0,10,3.8,10,6.0,10,1,10,0,10,0,10,,10,-1.0,10,0,10,-1.0,10,18000.0,10,10000.0,10,15000.0,10,2.7,10,0,10,14.0,10,14.7,10,17.6,10,20.1,10,12.6,10,16.4,10,10.6,10,1,10,1,10,2,10,1.6,10,1248.0,10
205,Feuerkogel,Oberösterreich,47.81667,13.71778,2025-07-11,2.0,10,2.0,10,1.0,10,10.0,10,8.0,10,5.0,10,77.0,10,0,10,0,10,1484.0,10,9.6,10,10.4,10,9.7,10,9.9,10,28.0,10,28.0,10,28.0,10,2,10,1,10,1,10,12.6,10,0,10,0,10,0,10,839.2,10,839.0,10,838.9,10,839.0,10,0,10,0,10,,10,,10,,10,,10,93.0,10,81.0,10,85.0,10,86.0,10,2.0,10,8.4,10,1.7,10,1,10,1,10,1,10,,10,-1.0,10,0,10,-1.0,10,20000.0,10,8000.0,10,40000.0,10,3.6,10,0,10,7.5,10,10.7,10,9.0,10,11.7,10,6.3,10,9.0,10,5.0,10,3,10,2,10,2,10,3.3,10,27.0,10
206,Loibl Tunnel,Kärnten,46.44389,14.24917,2025-07-11,1.0,10,2.0,10,1.0,10,5.0,10,10.0,10,4.0,10,63.0,10,0,10,0,10,1034.0,10,10.0,10,11.0,10,11.0,10,10.7,10,16.0,10,4.0,10,20.0,10,1,10,1,10,1,10,11.5,10,0,10,0,10,0,10,894.3,10,893.8,10,893.2,10,893.8,10,0,10,0,10,,10,,10,,10,,10,69.0,10,71.0,10,91.0,10,77.0,10,3.2,10,0.1,10,3.2,10,,10,,10,,10,,10,-1.0,10,0,10,-1.0,10,45000.0,10,30000.0,10,40000.0,10,2.0,10,0,10,12.5,10,13.6,10,9.8,10,16.9,10,9.1,10,13.0,10,7.3,10,1,10,2,10,1,10,1.6,10,1528.0,10
210,St.Leonhard im Pitztal,Tirol,47.02722,10.86556,2025-07-11,,10,,10,,10,,10,,10,,10,,10,0,10,0,10,987.0,10,9.8,10,10.0,10,10.9,10,10.2,10,0.0,10,32.0,10,32.0,10,,10,,10,,10,8.3,10,0,10,,10,,10,857.8,10,856.2,10,856.3,10,856.8,10,,10,,10,,10,,10,,10,,10,95.0,10,59.0,10,75.0,10,76.0,10,-1.0,10,-1.0,10,-1.0,10,,10,,10,,10,,10,,10,,10,,10,,10,,10,,10,0.3,10,,10,7.4,10,15.0,10,12.6,10,16.3,10,5.9,10,11.1,10,,10,0,10,1,10,1,10,0.7,10,1755.0,10
213,Sonnblick,Salzburg,47.05417,12.9575,2025-07-11,2.0,0,2.0,0,1.0,0,9.0,0,10.0,0,9.0,0,93.0,0,1,0,0,0,1262.0,0,5.2,0,5.4,0,5.0,0,5.2,0,28.0,0,28.0,0,28.0,0,7,0,7,0,7,0,17.5,0,0,0,0,0,1,0,698.8,0,698.6,0,698.6,0,698.7,0,1,0,0,0,,0,,0,,0,,0,96.0,0,93.0,0,92.0,0,94.0,0,9.9,0,4.2,0,9.9,0,2,0,2,0,2,0,29.0,0,28.0,0,3,0,5.0,0,100.0,0,100.0,0,200.0,0,0.5,0,0,0,-1.7,0,-0.6,0,-1.5,0,0.0,0,-2.4,0,-1.2,0,,0,3,0,3,0,4,0,5.2,0,500.0,0
214,Söll,Tirol,47.50306,12.20028,2025-07-11,,10,,10,,10,,10,,10,,10,,10,0,10,0,10,1207.0,10,13.7,10,14.6,10,14.6,10,14.3,10,8.0,10,4.0,10,8.0,10,,10,,10,,10,11.7,10,1,10,,10,,10,,10,,10,,10,,10,,10,,10,,10,,10,,10,,10,94.0,10,67.0,10,89.0,10,83.0,10,11.8,10,1.7,10,8.3,10,,10,,10,,10,,10,,10,,10,,10,,10,,10,,10,2.5,10,,10,12.6,10,18.9,10,14.4,10,18.9,10,12.1,10,15.5,10,11.4,10,1,10,2,10,1,10,1.6,10,1418.0,10
215,Gars am Kamp,Niederösterreich,48.59194,15.7,2025-07-11,,10,,10,,10,,10,,10,,10,,10,0,10,0,10,1897.0,10,14.4,10,13.1,10,12.2,10,13.2,10,4.0,10,28.0,10,24.0,10,,10,,10,,10,10.9,10,0,10,,10,,10,984.7,10,983.2,10,982.9,10,983.6,10,,10,,10,,10,,10,,10,,10,84.0,10,53.0,10,61.0,10,66.0,10,0.2,10,-1.0,10,0.2,10,,10,,10,,10,,10,,10,,10,,10,,10,,10,,10,4.1,10,,10,15.1,10,21.0,10,17.6,10,22.6,10,12.7,10,17.7,10,,10,1,10,3,10,4,10,4.1,10,1813.0,10
217,Kapfenberg Flugfeld,Steiermark,47.45833,15.33556,2025-07-11,,10,,10,,10,,10,,10,,10,,10,0,10,0,10,1687.0,10,12.3,10,13.1,10,11.9,10,12.4,10,4.0,10,20.0,10,4.0,10,,10,,10,,10,8.1,10,0,10,,10,,10,957.6,10,956.2,10,956.3,10,956.7,10,,10,,10,,10,,10,,10,,10,89.0,10,66.0,10,64.0,10,73.0,10,-1.0,10,0.0,10,-1.0,10,,10,,10,,10,,10,,10,,10,,10,,10,,10,,10,6.6,10,,10,11.8,10,17.4,10,16.4,10,21.0,10,9.3,10,15.2,10,7.0,10,1,10,1,10,2,10,1.6,10,1343.0,10
218,Andau,Burgenland,47.77,17.03556,2025-07-11,,10,,10,,10,,10,,10,,10,,10,0,10,0,10,2262.0,10,13.7,10,12.3,10,12.8,10,12.9,10,28.0,10,28.0,10,24.0,10,,10,,10,,10,9.0,10,0,10,,10,,10,1001.8,10,1000.5,10,1000.4,10,1000.9,10,,10,,10,,10,,10,,10,,10,66.0,10,43.0,10,53.0,10,54.0,10,-1.0,10,-1.0,10,-1.0,10,,10,,10,,10,,10,,10,,10,,10,,10,,10,,10,10.2,10,,10,18.1,10,23.4,10,20.6,10,24.2,10,13.7,10,19.0,10,10.9,10,2,10,2,10,3,10,3.3,10,1747.0,10
220,Gaschurn,Vorarlberg,46.980278,10.031667,2025-07-11,,10,,10,,10,,10,,10,,10,,10,0,10,0,10,2010.0,10,10.7,10,10.6,10,10.4,10,10.6,10,12.0,10,32.0,10,20.0,10,,10,,10,,10,9.9,10,0,10,,10,,10,907.7,10,905.9,10,905.5,10,906.4,10,,10,,10,,10,,10,,10,,10,83.0,10,47.0,10,56.0,10,62.0,10,0.5,10,-1.0,10,-1.0,10,,10,,10,,10,,10,,10,,10,,10,,10,,10,,10,4.6,10,,10,10.7,10,19.5,10,16.3,10,20.3,10,7.8,10,14.1,10,,10,1,10,3,10,2,10,2.8,10,1446.0,10
221,Stockerau,Niederösterreich,48.409833,16.190861,2025-07-11,,10,,10,,10,,10,,10,,10,,10,0,10,0,10,1775.0,10,15.2,10,14.2,10,14.7,10,14.7,10,20.0,10,20.0,10,20.0,10,,10,,10,,10,11.7,10,1,10,,10,,10,991.3,10,990.1,10,989.3,10,990.2,10,,10,,10,,10,,10,,10,,10,93.0,10,71.0,10,70.0,10,78.0,10,,10,,10,,10,,10,,10,,10,,10,,10,,10,,10,,10,,10,,10,5.6,10,,10,14.4,10,17.5,10,18.3,10,21.2,10,13.4,10,17.3,10,12.1,10,2,10,3,10,4,10,4.7,10,1535.0,10
222,Wolkersdorf,Niederösterreich,48.388056,16.508889,2025-07-11,,10,,10,,10,,10,,10,,10,,10,0,10,0,10,2091.0,10,14.5,10,12.0,10,14.4,10,13.6,10,28.0,10,24.0,10,24.0,10,,10,,10,,10,10.6,10,0,10,,10,,10,994.3,10,992.9,10,992.3,10,993.2,10,,10,,10,,10,,10,,10,,10,84.0,10,50.0,10,66.0,10,67.0,10,0.3,10,0.2,10,0.3,10,,10,,10,,10,,10,,10,,10,,10,,10,,10,,10,6.5,10,,10,15.2,10,20.5,10,18.9,10,23.7,10,13.6,10,18.7,10,11.4,10,2,10,2,10,2,10,2.7,10,1308.0,10
500,Litschau,Niederösterreich,48.95464,15.03831,2025-07-11,1.0,10,0.0,10,1.0,10,8.0,10,8.0,10,6.0,10,73.0,10,0,10,0,10,1996.0,10,13.5,10,12.1,10,13.0,10,12.9,10,24.0,10,28.0,10,28.0,10,2,10,2,10,1,10,6.4,10,0,10,0,10,0,10,952.7,10,951.3,10,951.6,10,951.9,10,0,10,0,10,,10,,10,,10,,10,93.0,10,56.0,10,81.0,10,77.0,10,4.0,10,13.0,10,4.0,10,1,10,1,10,1,10,,10,-1.0,10,0,10,-1.0,10,5000.0,10,10000.0,10,10000.0,10,6.0,10,0,10,12.6,10,18.8,10,14.1,10,20.6,10,10.3,10,15.5,10,9.8,10,1,10,2,10,1,10,1.6,10,1424.0,10
726,Raabs an der Thaya,Niederösterreich,48.84806,15.50194,2025-07-11,,10,,10,,10,,10,,10,,10,,10,0,10,0,10,1784.0,10,13.5,10,11.7,10,12.0,10,12.4,10,24.0,10,16.0,10,24.0,10,,10,,10,,10,10.5,10,1,10,,10,,10,963.8,10,962.4,10,962.6,10,962.9,10,,10,,10,,10,,10,,10,,10,86.0,10,54.0,10,64.0,10,68.0,10,5.2,10,0.5,10,5.2,10,,10,,10,,10,,10,,10,,10,,10,,10,,10,,10,5.1,10,,10,13.7,10,18.8,10,16.5,10,21.3,10,11.6,10,16.5,10,10.3,10,1,10,1,10,3,10,2.2,10,1507.0,10
901,Retz,Niederösterreich,48.75361,15.95,2025-07-11,1.0,0,1.0,0,1.0,0,9.0,0,5.0,0,4.0,0,60.0,0,,0,,0,,0,,0,,0,,0,,0,,0,,0,,0,1,0,1,0,1,0,,0,0,0,0,0,0,0,,0,,0,,0,,0,0,0,0,0,,0,,0,,0,,0,,0,,0,,0,,0,0.0,0,-1.0,0,0.0,0,1,0,0,0,1,0,,0,-1.0,0,0,0,-1.0,0,35000.0,0,40000.0,0,35000.0,0,,0,0,0,,0,,0,,0,,0,,0,,0,,0,,0,,0,,0,,0,,0
905,Retz,Niederösterreich,48.76111,15.94167,2025-07-11,,10,,10,,10,,10,,10,,10,,10,0,10,0,10,2071.0,10,13.3,10,11.4,10,11.2,10,12.0,10,28.0,10,24.0,10,24.0,10,,10,,10,,10,10.7,10,0,10,,10,,10,978.8,10,977.0,10,976.9,10,977.6,10,,10,,10,,10,,10,,10,,10,78.0,10,43.0,10,50.0,10,57.0,10,-1.0,10,-1.0,10,-1.0,10,,10,,10,,10,,10,,10,,10,,10,,10,,10,,10,6.2,10,,10,15.0,10,22.1,10,19.4,10,23.8,10,13.8,10,18.8,10,13.4,10,4,10,3,10,3,10,5.3,10,1946.0,10
1401,Kollerschlag,Oberösterreich,48.60278,13.83917,2025-07-11,0.0,10,0.0,10,0.0,10,4.0,10,4.0,10,4.0,10,40.0,10,0,10,0,10,1766.0,10,13.5,10,11.2,10,14.0,10,12.9,10,0.0,10,24.0,10,8.0,10,1,10,1,10,1,10,10.0,10,0,10,0,10,0,10,935.4,10,934.5,10,934.2,10,934.7,10,0,10,0,10,,10,,10,,10,,10,91.0,10,56.0,10,89.0,10,79.0,10,4.0,10,6.2,10,4.0,10,0,10,0,10,0,10,,10,-1.0,10,0,10,-1.0,10,5000.0,10,8000.0,10,6000.0,10,3.7,10,0,10,12.9,10,17.6,10,13.8,10,19.1,10,8.7,10,13.9,10,7.0,10,0,10,3,10,1,10,1.9,10,1117.0,10
1416,Rohrbach,Oberösterreich,48.56722,14.00444,2025-07-11,1.0,10,2.0,10,1.0,10,10.0,10,7.0,10,10.0,10,,10,0,10,0,10,1548.0,10,13.1,10,11.4,10,14.6,10,13.0,10,32.0,10,12.0,10,4.0,10,0,10,1,10,1,10,8.9,10,1,10,,10,0,10,946.3,10,946.0,10,945.2,10,945.8,10,,10,,10,,10,,10,,10,,10,95.0,10,74.0,10,94.0,10,88.0,10,4.3,10,2.2,10,4.3,10,,10,,10,,10,,10,,10,0,10,-1.0,10,10000.0,10,5000.0,10,20000.0,10,3.5,10,,10,11.8,10,13.4,10,13.6,10,19.1,10,8.9,10,14.0,10,7.4,10,2,10,2,10,2,10,2.7,10,1357.0,10
1602,Freistadt,Oberösterreich,48.49472,14.50639,2025-07-11,,10,,10,,10,,10,,10,,10,,10,0,10,0,10,1578.0,10,13.2,10,14.2,10,13.8,10,13.7,10,0.0,10,4.0,10,0.0,10,,10,,10,,10,9.4,10,0,10,,10,,10,954.6,10,953.8,10,953.4,10,953.9,10,,10,,10,,10,,10,,10,,10,94.0,10,81.0,10,94.0,10,90.0,10,8.4,10,1.4,10,8.4,10,,10,,10,,10,,10,,10,,10,,10,,10,,10,,10,3.3,10,,10,12.1,10,15.5,10,12.7,10,18.9,10,8.6,10,13.8,10,8.6,10,0,10,1,10,0,10,0.4,10,1722.0,10
1730,Schwarzau im Freiwald,Niederösterreich,48.668056,14.739445,2025-07-11,,10,,10,,10,,10,,10,,10,,10,0,10,0,10,,10,13.2,10,11.4,10,12.2,10,12.3,10,0.0,10,28.0,10,28.0,10,,10,,10,,10,8.9,10,,10,,10,,10,,10,,10,,10,,10,,10,,10,,10,,10,,10,,10,99.0,10,62.0,10,96.0,10,86.0,10,4.7,10,-1.0,10,4.7,10,,10,,10,,10,,10,,10,,10,,10,,10,,10,,10,,10,,10,11.3,10,16.2,10,10.5,10,17.6,10,3.0,10,10.3,10,1.8,10,0,10,2,10,1,10,1.2,10,1638.0,10
1802,Weitra,Niederösterreich,48.70222,14.89861,2025-07-11,1.0,10,2.0,10,1.0,10,9.0,10,7.0,10,8.0,10,80.0,10,0,10,0,10,1767.0,10,12.9,10,10.8,10,12.6,10,12.1,10,24.0,10,24.0,10,20.0,10,1,10,0,10,1,10,8.8,10,0,10,0,10,0,10,951.1,10,949.7,10,949.7,10,950.2,10,0,10,0,10,,10,,10,,10,,10,79.0,10,47.0,10,85.0,10,70.0,10,4.1,10,0.2,10,4.1,10,,10,,10,,10,,10,-1.0,10,0,10,-1.0,10,12000.0,10,30000.0,10,12000.0,10,3.8,10,0,10,14.4,10,19.8,10,12.9,10,21.5,10,10.4,10,16.0,10,9.0,10,1,10,2,10,2,10,2.1,10,1701.0,10
1906,Allentsteig,Niederösterreich,48.69083,15.36694,2025-07-11,1.0,10,2.0,10,1.0,10,9.0,10,3.0,10,8.0,10,67.0,10,0,10,0,10,2009.0,10,13.2,10,12.0,10,12.4,10,12.5,10,24.0,10,32.0,10,24.0,10,1,10,1,10,1,10,8.8,10,1,10,0,10,0,10,946.9,10,945.6,10,945.5,10,946.0,10,0,10,0,10,,10,,10,,10,,10,91.0,10,56.0,10,78.0,10,75.0,10,4.8,10,2.7,10,4.8,10,1,10,1,10,1,10,,10,-1.0,10,0,10,-1.0,10,30000.0,10,40000.0,10,35000.0,10,5.7,10,0,10,12.5,10,18.6,10,13.9,10,20.0,10,10.7,10,15.4,10,8.8,10,2,10,1,10,2,10,2.1,10,1528.0,10
1920,Stift Zwettl,Niederösterreich,48.61778,15.20361,2025-07-11,,10,,10,,10,,10,,10,,10,,10,0,10,0,10,1914.0,10,13.8,10,10.7,10,13.5,10,12.7,10,16.0,10,28.0,10,20.0,10,,10,,10,,10,8.4,10,1,10,,10,,10,958.2,10,956.6,10,956.8,10,957.2,10,,10,,10,,10,,10,,10,,10,93.0,10,45.0,10,89.0,10,76.0,10,1.1,10,1.1,10,1.1,10,,10,,10,,10,,10,,10,,10,,10,,10,,10,,10,4.8,10,,10,12.9,10,20.3,10,13.2,10,22.0,10,10.5,10,16.3,10,11.0,10,1,10,1,10,1,10,1.1,10,1135.0,10
2116,Gars am Kamp,Niederösterreich,48.59194,15.7,2025-07-11,,10,,10,,10,,10,,10,,10,,10,0,10,0,10,1897.0,10,14.4,10,13.1,10,12.2,10,13.2,10,4.0,10,28.0,10,24.0,10,,10,,10,,10,10.9,10,0,10,,10,,10,984.7,10,983.2,10,982.9,10,983.6,10,,10,,10,,10,,10,,10,,10,84.0,10,53.0,10,61.0,10,66.0,10,0.2,10,-1.0,10,0.2,10,,10,,10,,10,,10,,10,,10,,10,,10,,10,,10,4.1,10,,10,15.1,10,21.0,10,17.6,10,22.6,10,12.7,10,17.7,10,,10,1,10,3,10,4,10,4.1,10,1813.0,10
2117,Horn Wasserwerk,Niederösterreich,48.674999,15.643888,2025-07-11,,10,,10,,10,,10,,10,,10,,10,0,10,0,10,1891.0,10,13.6,10,11.8,10,12.0,10,12.5,10,24.0,10,24.0,10,24.0,10,,10,,10,,10,11.9,10,0,10,,10,,10,981.0,10,979.1,10,979.6,10,979.9,10,,10,,10,,10,,10,,10,,10,83.0,10,48.0,10,63.0,10,65.0,10,0.1,10,0.1,10,0.1,10,,10,,10,,10,,10,,10,,10,,10,,10,,10,,10,4.5,10,,10,14.4,10,20.8,10,16.7,10,23.9,10,12.0,10,18.0,10,,10,2,10,2,10,4,10,4.0,10,1811.0,10
2207,Schöngrabern,Niederösterreich,48.60333,16.06167,2025-07-11,2.0,10,1.0,10,1.0,10,10.0,10,6.0,10,7.0,10,77.0,10,0,10,0,10,1848.0,10,14.7,10,14.3,10,14.6,10,14.5,10,28.0,10,28.0,10,24.0,10,1,10,1,10,1,10,9.9,10,0,10,0,10,0,10,987.0,10,985.3,10,984.9,10,985.7,10,0,10,0,10,,10,,10,,10,,10,89.0,10,54.0,10,65.0,10,69.0,10,0.2,10,0.2,10,0.2,10,1,10,1,10,1,10,,10,-1.0,10,0,10,-1.0,10,8000.0,10,30000.0,10,25000.0,10,5.7,10,0,10,14.5,10,22.1,10,19.4,10,23.9,10,13.5,10,18.7,10,12.9,10,2,10,1,10,2,10,2.1,10,1445.0,10
2401,Laa an der Thaya Kläranlage,Niederösterreich,48.73139,16.38972,2025-07-11,,10,,10,,10,,10,,10,,10,,10,0,10,0,10,2242.0,10,15.2,10,11.0,10,13.2,10,13.1,10,20.0,10,24.0,10,20.0,10,,10,,10,,10,9.3,10,0,10,,10,,10,994.6,10,992.4,10,992.4,10,993.1,10,,10,,10,,10,,10,,10,,10,85.0,10,37.0,10,55.0,10,59.0,10,-1.0,10,0.2,10,-1.0,10,,10,,10,,10,,10,,10,,10,,10,,10,,10,,10,6.9,10,,10,15.8,10,24.0,10,20.5,10,24.7,10,13.8,10,19.3,10,12.5,10,1,10,2,10,2,10,2.1,10,1532.0,10
2415,Leiser Berge,Niederösterreich,48.55889,16.37167,2025-07-11,,10,,10,,10,,10,,10,,10,,10,0,10,0,10,2110.0,10,13.5,10,12.8,10,14.3,10,13.5,10,28.0,10,24.0,10,24.0,10,,10,,10,,10,14.0,10,0,10,,10,,10,962.9,10,961.9,10,961.4,10,962.1,10,,10,,10,,10,,10,,10,,10,89.0,10,57.0,10,76.0,10,74.0,10,0.0,10,-1.0,10,0.0,10,,10,,10,,10,,10,,10,,10,,10,,10,,10,,10,6.6,10,,10,13.2,10,19.4,10,16.6,10,21.4,10,12.3,10,16.9,10,12.1,10,4,10,4,10,4,10,6.8,10,1605.0,10
2430,Mistelbach,Niederösterreich,48.57083,16.60944,2025-07-11,,10,,10,,10,,10,,10,,10,,10,0,10,0,10,,10,14.9,10,10.7,10,14.6,10,13.4,10,28.0,10,28.0,10,24.0,10,,10,,10,,10,8.8,10,0,10,,10,,10,994.0,10,992.0,10,991.9,10,992.6,10,,10,,10,,10,,10,,10,,10,85.0,10,33.0,10,67.0,10,62.0,10,-1.0,10,0.3,10,-1.0,10,,10,,10,,10,,10,,10,,10,,10,,10,,10,,10,8.5,10,,10,15.5,10,25.5,10,18.9,10,26.0,10,13.3,10,19.7,10,12.9,10,1,10,1,10,2,10,1.6,10,1553.0,10
2503,Poysdorf Ost,Niederösterreich,48.66917,16.6375,2025-07-11,2.0,10,2.0,10,2.0,10,8.0,10,4.0,10,4.0,10,53.0,10,0,10,0,10,2292.0,10,14.6,10,10.2,10,14.0,10,12.9,10,24.0,10,24.0,10,24.0,10,1,10,1,10,1,10,8.9,10,0,10,0,10,0,10,992.0,10,990.0,10,990.0,10,990.7,10,0,10,0,10,,10,,10,,10,,10,78.0,10,34.0,10,59.0,10,57.0,10,-1.0,10,-1.0,10,-1.0,10,1,10,1,10,1,10,,10,-1.0,10,0,10,-1.0,10,20000.0,10,20000.0,10,20000.0,10,6.9,10,1,10,16.5,10,24.1,10,20.3,10,24.8,10,13.3,10,19.1,10,11.9,10,1,10,1,10,2,10,1.6,10,1623.0,10
2602,Hohenau,Niederösterreich,48.605835,16.913055,2025-07-11,,10,,10,,10,,10,,10,,10,,10,0,10,0,10,2441.0,10,13.6,10,10.7,10,12.5,10,12.3,10,28.0,10,32.0,10,24.0,10,,10,,10,,10,8.9,10,0,10,,10,,10,997.9,10,996.0,10,995.8,10,996.6,10,,10,,10,,10,,10,,10,,10,68.0,10,36.0,10,49.0,10,51.0,10,-1.0,10,-1.0,10,-1.0,10,,10,,10,,10,,10,,10,,10,,10,,10,,10,,10,8.9,10,,10,17.5,10,24.0,10,21.4,10,25.0,10,12.2,10,18.6,10,10.3,10,2,10,2,10,2,10,2.7,10,1627.0,10
2902,Reichersberg,Oberösterreich,48.33111,13.37611,2025-07-11,2.0,10,1.0,10,1.0,10,10.0,10,5.0,10,7.0,10,73.0,10,0,10,0,10,1715.0,10,15.6,10,14.7,10,16.9,10,15.7,10,8.0,10,20.0,10,24.0,10,2,10,1,10,1,10,8.8,10,0,10,0,10,0,10,976.0,10,975.3,10,974.1,10,975.1,10,0,10,0,10,,10,,10,,10,,10,96.0,10,66.0,10,79.0,10,80.0,10,2.4,10,3.4,10,2.3,10,1,10,1,10,1,10,,10,-1.0,10,0,10,-1.0,10,1500.0,10,8000.0,10,6000.0,10,4.8,10,0,10,14.3,10,19.3,10,18.6,10,22.6,10,12.3,10,17.5,10,10.6,10,1,10,3,10,1,10,2.2,10,1120.0,10
2910,Schärding,Oberösterreich,48.46428,13.43453,2025-07-11,2.0,10,,10,,10,10.0,10,,10,,10,,10,0,10,0,10,1824.0,10,15.1,10,13.8,10,14.0,10,14.3,10,28.0,10,20.0,10,8.0,10,1,10,,10,,10,6.9,10,0,10,,10,,10,980.8,10,979.6,10,978.7,10,979.7,10,,10,,10,,10,,10,,10,,10,95.0,10,56.0,10,63.0,10,71.0,10,0.0,10,0.3,10,0.0,10,,10,,10,,10,,10,,10,0,10,,10,3000.0,10,,10,,10,4.6,10,,10,13.9,10,20.9,10,19.2,10,22.9,10,13.0,10,18.0,10,11.5,10,1,10,3,10,1,10,2.2,10,1338.0,10
3111,Waizenkirchen,Oberösterreich,48.32656,13.86458,2025-07-11,,10,,10,,10,,10,,10,,10,,10,0,10,0,10,2033.0,10,,10,,10,,10,,10,20.0,10,20.0,10,12.0,10,,10,,10,,10,10.9,10,1,10,,10,,10,970.4,10,969.3,10,968.8,10,969.5,10,,10,,10,,10,,10,,10,,10,,10,,10,,10,,10,,10,,10,,10,,10,,10,,10,,10,,10,,10,,10,,10,,10,,10,4.8,10,,10,,10,,10,,10,,10,,10,,10,,10,1,10,4,10,1,10,2.6,10,1313.0,10
3202,Linz Stadt,Oberösterreich,48.29639,14.28528,2025-07-11,,10,,10,,10,,10,,10,,10,,10,0,10,0,10,1448.0,10,14.5,10,15.0,10,12.8,10,14.1,10,28.0,10,20.0,10,4.0,10,,10,,10,,10,7.7,10,1,10,,10,,10,986.6,10,985.5,10,985.1,10,985.7,10,,10,,10,,10,,10,,10,,10,93.0,10,74.0,10,68.0,10,78.0,10,2.2,10,4.2,10,2.1,10,,10,,10,,10,,10,,10,,10,,10,,10,,10,,10,3.0,10,,10,13.6,10,17.8,10,16.6,10,21.6,10,12.2,10,16.9,10,11.7,10,1,10,1,10,2,10,1.6,10,1800.0,10
3315,Reichenau im Mühlkreis,Oberösterreich,48.45917,14.34556,2025-07-11,,10,,10,,10,,10,,10,,10,,10,0,10,0,10,1292.0,10,12.7,10,11.9,10,12.3,10,12.3,10,28.0,10,0.0,10,24.0,10,,10,,10,,10,11.1,10,1,10,,10,,10,937.7,10,937.3,10,936.7,10,937.2,10,,10,,10,,10,,10,,10,,10,91.0,10,69.0,10,85.0,10,82.0,10,1.1,10,1.8,10,1.1,10,,10,,10,,10,,10,,10,,10,,10,,10,,10,,10,2.6,10,,10,11.9,10,15.2,10,12.5,10,18.3,10,8.2,10,13.3,10,7.1,10,1,10,0,10,2,10,1.2,10,1717.0,10
